peopleid3rog3,rog3,ctry,peopleid3,peopnameincountry,peopnameacrosscountries,naturalname,population,rog2,continent,regioncode,regionname,10_40window,peopleid1,affinitybloc,peopleid2,peoplecluster,populationpgac,jpscale,leastreached,frontier,workersneeded,rop25,rop25name,rop3,rol3,primarylanguagename,biblestatus,rlg3,primaryreligion,percentadherents,percentevangelical,indigenouscode,photoccversiontext,photoccversionurl,mapccversiontext,mapccversionurl,jf,audiorecordings,longitude,latitude
18385CH,CH,China,18385,"A Che","A Che","A Che",42000,ASI,Asia,3,"Asia, Northeast",Y,23,"Tibetan-Himalayan Peoples",317,"Tibeto-Burman, other",42000,1,Y,Y,1,300001,"A Che",113978,yif,Ache,1,4,"Ethnic Religions",0.000,0.000,Y,,,,,Y,Y,101.97421,24.68311
18399CH,CH,China,18399,A'ou,A'ou,A'ou,2800,ASI,Asia,3,"Asia, Northeast",Y,20,"Southeast Asian Peoples",295,Tai,2800,1,Y,Y,1,300380,A'ou,113993,cmn,"Chinese, Mandarin",5,4,"Ethnic Religions",0.000,0.000,Y,,,,,Y,Y,106.02223729122,26.940644878159
10120MY,MY,Malaysia,10120,"Abai Sungai","Abai Sungai","Abai Sungai",1600,ASI,Asia,2,"Asia, Southeast",Y,17,"Malay Peoples",155,Borneo-Kalimantan,1600,1,Y,Y,1,300005,"Abai Sungai",100005,abf,"Abai Sungai",0,6,Islam,0.000,0.000,Y,,,,,N,N,118.3747,5.68353
10125RS,RS,Russia,10125,Abaza,Abaza,Abaza,42000,ASI,Asia,9,"Europe, Eastern and Eurasia",N,12,"Eurasian Peoples",157,Caucasus,72000,1,Y,Y,1,300009,Abaza,100011,abq,Abaza,3,6,Islam,0.022,0.022,Y,,,,,N,N,41.88952,44.22168
10125TU,TU,"Türkiye (Turkey)",10125,Abaza,Abaza,Abaza,14000,ASI,Asia,5,"Asia, Central",Y,12,"Eurasian Peoples",157,Caucasus,72000,1,Y,N,1,300009,Abaza,100011,abq,Abaza,3,6,Islam,0.200,0.000,N,,,,,N,N,42.72732,41.12144
10125EG,EG,Egypt,10125,"Abaza, Arabized",Abaza,"Arabized Abaza",16000,AFR,Africa,6,"Africa, North and Middle East",Y,12,"Eurasian Peoples",157,Caucasus,72000,1,Y,Y,1,300009,Abaza,100011,arz,"Arabic, Egyptian",5,6,Islam,0.100,0.000,Y,,,,,Y,Y,31.567505,30.492752
16152BG,BG,Bangladesh,16152,Abdul,Abdul,Abdul,43000,ASI,Asia,4,"Asia, South",Y,21,"South Asian Peoples",462,"South Asia Muslim - other",85500,1,Y,Y,1,300010,Abdal,111252,ben,Bengali,5,6,Islam,0.000,0.000,Y,,,,,Y,Y,89.836245920389,22.996444245679
16152IN,IN,India,16152,Abdul,Abdul,Abdul,41000,ASI,Asia,4,"Asia, South",Y,21,"South Asian Peoples",462,"South Asia Muslim - other",85500,1,Y,Y,1,300010,Abdal,111252,urd,Urdu,5,6,Islam,0.000,0.000,Y,,,,,Y,Y,84.220237229899,25.051311722751
16152NP,NP,Nepal,16152,Abdul,Abdul,Abdul,1500,ASI,Asia,4,"Asia, South",Y,21,"South Asian Peoples",462,"South Asia Muslim - other",85500,1,Y,Y,1,300010,Abdal,111252,urd,Urdu,5,6,Islam,0.000,0.000,Y,,,,,Y,Y,82.17540409226,28.442443064845
10130SY,SY,Syria,10130,Abkhaz,Abkhaz,Abkhaz,6500,ASI,Asia,6,"Africa, North and Middle East",Y,12,"Eurasian Peoples",157,Caucasus,188900,1,Y,N,1,300015,Abkhaz,100018,abk,Abkhaz,4,6,Islam,4.000,1.000,N,"CC BY-SA 3.0",https://creativecommons.org/licenses/by-sa/3.0/,,,Y,N,36.333564,33.533734
10130TU,TU,"Türkiye (Turkey)",10130,Abkhaz,Abkhaz,Abkhaz,167000,ASI,Asia,5,"Asia, Central",Y,12,"Eurasian Peoples",157,Caucasus,188900,1,Y,Y,3,300015,Abkhaz,100018,abk,Abkhaz,4,6,Islam,0.000,0.000,Y,"CC BY-SA 3.0",https://creativecommons.org/licenses/by-sa/3.0/,,,Y,N,41.820686725712,41.178986841769
10136CD,CD,Chad,10136,"Abu Sharib","Abu Sharib","Abu Sharib",93000,AFR,Africa,8,"Africa, West and Central",Y,22,"Sub-Saharan Peoples",264,Ouaddai-Fur,93000,1,Y,Y,2,300020,"Abu Sharib",100027,mgb,Mararit,2,6,Islam,0.010,0.009,Y,"CC BY-SA 2.0",https://creativecommons.org/licenses/by-sa/2.0/,,,N,Y,21.758036152746,14.038134644298
22457SU,SU,Sudan,22457,Abu-Junuk,Abu-Junuk,Abu-Junuk,9800,AFR,Africa,7,"Africa, East and Southern",Y,22,"Sub-Saharan Peoples",248,"Nuba Mountains",9800,1,Y,Y,1,,,119453,apd,"Arabic, Sudanese",4,6,Islam,0.000,0.000,Y,,,,,Y,Y,28.96,11.98
10144ID,ID,Indonesia,10144,Acehnese,Acehnese,Acehnese,4024000,ASI,Asia,2,"Asia, Southeast",Y,17,"Malay Peoples",101,"Aceh of Sumatra",4114000,1,Y,N,80,300028,Acehnese,100036,ace,Aceh,5,6,Islam,0.120,0.005,Y,,,,,Y,Y,97.05471,3.64342
10144MY,MY,Malaysia,10144,Acehnese,Acehnese,Acehnese,90000,ASI,Asia,2,"Asia, Southeast",Y,17,"Malay Peoples",101,"Aceh of Sumatra",4114000,1,Y,Y,2,300028,Acehnese,100036,zlm,Malay,5,6,Islam,0.000,0.000,N,,,,,Y,Y,101.600946,3.03442
18384CH,CH,China,18384,"Achang, Husa","Achang, Husa",Achang,7500,ASI,Asia,3,"Asia, Northeast",Y,23,"Tibetan-Himalayan Peoples",317,"Tibeto-Burman, other",7500,1,Y,N,1,300030,Achang,113977,acn,Achang,5,4,"Ethnic Religions",2.000,2.000,Y,,,,,N,Y,97.871655614315,24.40347417899
16158IN,IN,India,16158,"Ad Dharmi","Ad Dharmi","Ad Dharmi",1229000,ASI,Asia,4,"Asia, South",Y,21,"South Asian Peoples",412,"South Asia Dalit - other",1229000,1,Y,N,25,300039,"Ad Dharmi / Adi Dharmi",111259,pan,"Punjabi, Eastern",5,5,Hinduism,0.337,,Y,"CC BY-SA 4.0",https://creativecommons.org/licenses/by-sa/4.0/,,,Y,Y,76.123235162635,31.827981384047
18386BT,BT,Bhutan,18386,Adi,Adi,Adi,2800,ASI,Asia,4,"Asia, South",Y,21,"South Asian Peoples",103,Adi,86000,1,Y,Y,1,300047,Adi,113979,adi,Adi,5,9,Unknown,0.000,0.000,N,"CC BY 2.0",https://creativecommons.org/licenses/by/2.0/,,,Y,Y,90.188702,27.03247
18386CH,CH,China,18386,Adi,Adi,Adi,1200,ASI,Asia,3,"Asia, Northeast",Y,21,"South Asian Peoples",103,Adi,86000,1,Y,Y,1,300047,Adi,113979,adi,Adi,5,4,"Ethnic Religions",0.000,0.000,Y,"CC BY 2.0",https://creativecommons.org/licenses/by/2.0/,,,Y,Y,92.542649710016,28.482663132897
16162CE,CE,"Sri Lanka",16162,"Adi Andhra","Adi Andhra","Adi Andhra",800,ASI,Asia,4,"Asia, South",Y,21,"South Asian Peoples",412,"South Asia Dalit - other",363800,1,Y,Y,1,300048,"Adi Andhra",111264,tel,Telugu,5,5,Hinduism,0.000,0.000,Y,,,,,Y,Y,81.044746866035,7.0615802663406
16162IN,IN,India,16162,"Adi Andhra","Adi Andhra","Adi Andhra",363000,ASI,Asia,4,"Asia, South",Y,21,"South Asian Peoples",412,"South Asia Dalit - other",363800,1,Y,N,7,300048,"Adi Andhra",111264,tel,Telugu,5,5,Hinduism,0.862,,Y,,,,,Y,Y,82.310876972451,17.358804901904
16164IN,IN,India,16164,"Adi Dravida","Adi Dravida","Adi Dravida",10144000,ASI,Asia,4,"Asia, South",Y,21,"South Asian Peoples",412,"South Asia Dalit - other",10144000,1,Y,Y,203,300049,"Adi Dravida",111266,tam,Tamil,5,5,Hinduism,0.095,,Y,,,,,Y,Y,79.616260500579,12.250878430078
16166IN,IN,India,16166,"Adi Karnataka","Adi Karnataka","Adi Karnataka",3509000,ASI,Asia,4,"Asia, South",Y,21,"South Asian Peoples",412,"South Asia Dalit - other",3509000,1,Y,N,70,300050,"Adi Karnataka",111268,kan,Kannada,5,5,Hinduism,0.513,,Y,,,,,Y,Y,76.662102974047,12.649992691545
17939CH,CH,China,17939,"Adi Ramo","Adi Ramo","Adi Ramo",200,ASI,Asia,3,"Asia, Northeast",Y,21,"South Asian Peoples",103,Adi,1800,1,Y,Y,1,300047,Adi,113427,adi,Adi,5,2,Buddhism,0.000,0.000,N,,,,,Y,Y,94.34,29.4
20054NP,NP,Nepal,20054,"Adibasi Janajati","Adibasi Janajati","Adibasi Janajati",1300,ASI,Asia,4,"Asia, South",Y,21,"South Asian Peoples",442,"South Asia Hindu - other",1300,1,Y,Y,1,300051,Adibasi,115688,npi,Nepali,5,5,Hinduism,0.000,0.000,Y,,,,,Y,Y,80.752818162618,28.925253212441
16171IN,IN,India,16171,Adiyan,Adiyan,Adiyan,19000,ASI,Asia,4,"Asia, South",Y,21,"South Asian Peoples",475,"South Asia Tribal - other",19000,1,Y,N,1,300053,Adiyan,111273,mal,Malayalam,5,5,Hinduism,0.773,,Y,,,,,Y,Y,76.234503103473,12.10840611579
18387CH,CH,China,18387,Adu,Adu,Adu,8200,ASI,Asia,3,"Asia, Northeast",Y,23,"Tibetan-Himalayan Peoples",317,"Tibeto-Burman, other",8200,1,Y,Y,1,300056,Adu,113980,cmn,"Chinese, Mandarin",5,7,Non-Religious,0.000,0.000,Y,,,,,Y,Y,106.28422769113,25.931359644143
10161EG,EG,Egypt,10161,Adyghe,Adyghe,Adyghe,15000,AFR,Africa,6,"Africa, North and Middle East",Y,12,"Eurasian Peoples",157,Caucasus,680700,1,Y,Y,1,300058,Adyghe,100079,ady,Adyghe,4,6,Islam,0.100,0.000,N,,,,,Y,Y,31.253906,30.015129
10161GM,GM,Germany,10161,Adyghe,Adyghe,Adyghe,2100,EUR,Europe,10,"Europe, Western",N,12,"Eurasian Peoples",157,Caucasus,680700,1,Y,Y,1,300058,Adyghe,100079,ady,Adyghe,4,6,Islam,0.070,0.050,N,,,,,Y,Y,13.428073,52.497842
10161IS,IS,Israel,10161,Adyghe,Adyghe,Adyghe,4200,ASI,Asia,6,"Africa, North and Middle East",Y,12,"Eurasian Peoples",157,Caucasus,680700,1,Y,Y,1,300058,Adyghe,100079,ady,Adyghe,4,6,Islam,0.050,0.020,N,,,,,Y,Y,35.49547,32.69226
10161IZ,IZ,Iraq,10161,Adyghe,Adyghe,Adyghe,45000,ASI,Asia,6,"Africa, North and Middle East",Y,12,"Eurasian Peoples",157,Caucasus,680700,1,Y,Y,1,300058,Adyghe,100079,ady,Adyghe,4,6,Islam,0.020,0.010,N,,,,,Y,Y,45.01019,34.36674
10161JO,JO,Jordan,10161,Adyghe,Adyghe,Adyghe,103000,ASI,Asia,6,"Africa, North and Middle East",Y,12,"Eurasian Peoples",157,Caucasus,680700,1,Y,Y,2,300058,Adyghe,100079,ady,Adyghe,4,6,Islam,0.020,0.020,N,,,,,Y,Y,36.30381,32.30991
10161RI,RI,Serbia,10161,Adyghe,Adyghe,Adyghe,2100,EUR,Europe,9,"Europe, Eastern and Eurasia",N,12,"Eurasian Peoples",157,Caucasus,680700,1,Y,Y,1,300058,Adyghe,100079,ady,Adyghe,4,6,Islam,0.000,0.000,N,,,,,Y,Y,20.495112,44.791215
10161SY,SY,Syria,10161,Adyghe,Adyghe,Adyghe,29000,ASI,Asia,6,"Africa, North and Middle East",Y,12,"Eurasian Peoples",157,Caucasus,680700,1,Y,N,1,300058,Adyghe,100079,ady,Adyghe,4,6,Islam,0.400,0.100,N,,,,,Y,Y,36.50748,32.5365
10161TU,TU,"Türkiye (Turkey)",10161,Adyghe,Adyghe,Adyghe,359000,ASI,Asia,5,"Asia, Central",Y,12,"Eurasian Peoples",157,Caucasus,680700,1,Y,Y,7,300058,Adyghe,100079,ady,Adyghe,4,6,Islam,0.000,0.000,N,,,,,Y,Y,35.508126999961,38.666601000436
10161US,US,"United States",10161,Adyghe,Adyghe,Adyghe,9300,NAR,"North America",12,"America, North and Caribbean",N,12,"Eurasian Peoples",157,Caucasus,680700,1,Y,Y,1,300058,Adyghe,100079,ady,Adyghe,4,6,Islam,0.000,0.000,N,,,,,Y,Y,-76.145707394381,43.058449256928
10161WE,WE,"West Bank / Gaza",10161,Adyghe,Adyghe,Adyghe,1000,ASI,Asia,6,"Africa, North and Middle East",Y,12,"Eurasian Peoples",157,Caucasus,680700,1,Y,N,1,300058,Adyghe,100079,ady,Adyghe,4,6,Islam,0.300,0.000,N,,,,,Y,Y,35.079923,31.533095
10161RS,RS,Russia,10161,"Adyghe, West Circassian",Adyghe,Adyghe,111000,ASI,Asia,9,"Europe, Eastern and Eurasia",N,12,"Eurasian Peoples",157,Caucasus,680700,1,Y,Y,2,300058,Adyghe,100079,ady,Adyghe,4,6,Islam,0.070,0.070,Y,,,,,Y,Y,40.113917355801,44.594718641352
11486DJ,DJ,Djibouti,11486,Afar,Afar,Afar,334000,AFR,Africa,7,"Africa, East and Southern",Y,13,"Horn of Africa Peoples",104,Afar,2785000,1,Y,Y,7,300064,Afar,102419,aar,Afar,5,6,Islam,0.030,0.008,Y,,,,,Y,Y,42.52214,11.80625
11486ER,ER,Eritrea,11486,Afar,Afar,Afar,296000,AFR,Africa,7,"Africa, East and Southern",Y,13,"Horn of Africa Peoples",104,Afar,2785000,1,Y,N,6,300064,Afar,102419,aar,Afar,5,6,Islam,0.200,0.000,Y,,,,,Y,Y,41.69362,13.66698
11486ET,ET,Ethiopia,11486,Afar,Afar,Afar,2155000,AFR,Africa,7,"Africa, East and Southern",Y,13,"Horn of Africa Peoples",104,Afar,2785000,1,Y,N,43,300064,Afar,102419,aar,Afar,5,6,Islam,0.900,0.009,Y,,,,,Y,Y,40.8552,11.67485
19475PK,PK,Pakistan,19475,"Afghan Pawinda","Afghan Pawinda","Afghan Pawinda",1800,ASI,Asia,4,"Asia, South",Y,21,"South Asian Peoples",462,"South Asia Muslim - other",1800,1,Y,Y,1,300065,"Pawinda / Powindah",115237,pst,"Pashto, Central",0,6,Islam,0.000,0.000,N,,,,,N,Y,70.312910425577,33.705899576119
14372AF,AF,Afghanistan,14372,"Afghan, Tajik","Afghan, Tajik","Afghan Tajik",11670000,ASI,Asia,5,"Asia, Central",Y,14,Persian-Median,299,Tajik,12096700,1,Y,Y,233,306674,Persian,107989,prs,Dari,5,6,Islam,0.010,0.010,Y,"CC BY-NC 2.0",https://creativecommons.org/licenses/by-nc/2.0/,,,Y,Y,62.14612,31.15621
14372IR,IR,Iran,14372,"Afghan, Tajik","Afghan, Tajik","Afghan Tajik",425000,ASI,Asia,5,"Asia, Central",Y,14,Persian-Median,299,Tajik,12096700,1,Y,Y,8,306674,Persian,107989,prs,Dari,5,6,Islam,0.010,0.010,N,"CC BY-NC 2.0",https://creativecommons.org/licenses/by-nc/2.0/,,,Y,Y,61.493783,31.043472
14372KZ,KZ,Kazakhstan,14372,"Afghan, Tajik","Afghan, Tajik","Afghan Tajik",800,ASI,Asia,5,"Asia, Central",Y,14,Persian-Median,299,Tajik,12096700,1,Y,Y,1,306674,Persian,107989,prs,Dari,5,6,Islam,0.000,0.000,N,"CC BY-NC 2.0",https://creativecommons.org/licenses/by-nc/2.0/,,,Y,Y,76,45
14372UP,UP,Ukraine,14372,"Afghan, Tajik","Afghan, Tajik","Afghan Tajik",900,EUR,Europe,9,"Europe, Eastern and Eurasia",N,14,Persian-Median,299,Tajik,12096700,1,Y,Y,1,306674,Persian,107989,prs,Dari,5,6,Islam,0.000,0.000,N,"CC BY-NC 2.0",https://creativecommons.org/licenses/by-nc/2.0/,,,Y,Y,30.54,50.42
19314AS,AS,Australia,19314,"Afghani, general","Afghani, general",Afghan,33000,AUS,Australia,1,"Australia and Pacific",N,21,"South Asian Peoples",463,"South Asia Muslim - Pashtun",918900,1,Y,Y,1,300066,Afghan,115238,prs,Dari,5,6,Islam,0.000,0.000,N,,,,,Y,Y,144.951575,-37.807867
19314AU,AU,Austria,19314,"Afghani, general","Afghani, general",Afghan,44000,EUR,Europe,10,"Europe, Western",N,21,"South Asian Peoples",463,"South Asia Muslim - Pashtun",918900,1,Y,Y,1,300066,Afghan,115238,prs,Dari,5,6,Islam,0.000,0.000,N,,,,,Y,Y,16.21958,48.282744
19314BE,BE,Belgium,19314,"Afghani, general","Afghani, general",Afghan,26000,EUR,Europe,10,"Europe, Western",N,21,"South Asian Peoples",463,"South Asia Muslim - Pashtun",918900,1,Y,Y,1,300066,Afghan,115238,prs,Dari,5,6,Islam,0.000,0.000,N,,,,,Y,Y,4.55,51.2
19314CA,CA,Canada,19314,"Afghani, general","Afghani, general",Afghan,60000,NAR,"North America",12,"America, North and Caribbean",N,21,"South Asian Peoples",463,"South Asia Muslim - Pashtun",918900,1,Y,Y,1,300066,Afghan,115238,prs,Dari,5,6,Islam,0.000,0.000,N,,,,,Y,Y,-79.288,43.7834
19314DA,DA,Denmark,19314,"Afghani, general","Afghani, general",Afghan,20000,EUR,Europe,10,"Europe, Western",N,21,"South Asian Peoples",463,"South Asia Muslim - Pashtun",918900,1,Y,Y,1,300066,Afghan,115238,prs,Dari,5,6,Islam,0.000,0.000,N,,,,,Y,Y,12.464524,55.722454
19314GM,GM,Germany,19314,"Afghani, general","Afghani, general",Afghan,295000,EUR,Europe,10,"Europe, Western",N,21,"South Asian Peoples",463,"South Asia Muslim - Pashtun",918900,1,Y,Y,6,300066,Afghan,115238,prs,Dari,5,6,Islam,0.040,0.030,N,,,,,Y,Y,9.165,50.644
19314NL,NL,Netherlands,19314,"Afghani, general","Afghani, general",Afghan,53000,EUR,Europe,10,"Europe, Western",N,21,"South Asian Peoples",463,"South Asia Muslim - Pashtun",918900,1,Y,Y,1,300066,Afghan,115238,prs,Dari,5,6,Islam,0.000,0.000,N,,,,,Y,Y,4.767,52.307
19314NZ,NZ,"New Zealand",19314,"Afghani, general","Afghani, general",Afghan,3900,SOP,Oceania,1,"Australia and Pacific",N,21,"South Asian Peoples",463,"South Asia Muslim - Pashtun",918900,1,Y,Y,1,300066,Afghan,115238,prs,Dari,5,6,Islam,0.000,0.000,N,,,,,Y,Y,174.753984,-36.872571
19314SZ,SZ,Switzerland,19314,"Afghani, general","Afghani, general",Afghan,19000,EUR,Europe,10,"Europe, Western",N,21,"South Asian Peoples",463,"South Asia Muslim - Pashtun",918900,1,Y,Y,1,300066,Afghan,115238,prs,Dari,5,6,Islam,0.000,0.000,N,,,,,Y,Y,7.432,46.936
19314TU,TU,"Türkiye (Turkey)",19314,"Afghani, general","Afghani, general",Afghan,185000,ASI,Asia,5,"Asia, Central",Y,21,"South Asian Peoples",463,"South Asia Muslim - Pashtun",918900,1,Y,Y,4,300066,Afghan,115238,prs,Dari,5,6,Islam,0.000,0.000,N,,,,,Y,Y,28.978,41.008
19314UK,UK,"United Kingdom",19314,"Afghani, general","Afghani, general",Afghan,78000,EUR,Europe,10,"Europe, Western",N,21,"South Asian Peoples",463,"South Asia Muslim - Pashtun",918900,1,Y,N,2,300066,Afghan,115238,prs,Dari,5,6,Islam,0.400,0.400,N,,,,,Y,Y,-0.14,51.51
19314US,US,"United States",19314,"Afghani, general","Afghani, general",Afghan,102000,NAR,"North America",12,"America, North and Caribbean",N,21,"South Asian Peoples",463,"South Asia Muslim - Pashtun",918900,1,Y,Y,2,300066,Afghan,115238,prs,Dari,5,6,Islam,0.000,0.000,N,,,,,Y,Y,-122.168033,37.756624
10167SU,SU,Sudan,10167,"Afitti, Ditti",Afitti,Afitti,5500,AFR,Africa,7,"Africa, East and Southern",Y,22,"Sub-Saharan Peoples",249,Nubian,5500,1,Y,Y,1,300067,Afitti,100090,aft,Afitti,2,6,Islam,0.000,0.000,Y,,,,,N,N,30.76247,12.43159
22380IZ,IZ,Iraq,22380,Afro-Iraqi,Afro-Iraqi,Afro-Iraqi,1000000,ASI,Asia,6,"Africa, North and Middle East",Y,10,"Arab World",113,"Arab, Levant",1000000,1,Y,N,20,0,,119381,acm,"Arabic, Mesopotamian",4,6,Islam,0.600,0.300,N,"CC BY-SA 2.0",https://creativecommons.org/licenses/by-sa/2.0/,,,Y,Y,47.75,30.43
19409AF,AF,Afghanistan,19409,Afshari,Afshari,Afshari,16000,ASI,Asia,5,"Asia, Central",Y,24,"Turkic Peoples",126,Azerbaijani,417000,1,Y,Y,1,300091,Afshari,100096,azb,"Azerbaijani, South",5,6,Islam,0.039,0.039,N,,,,,Y,Y,69.289760000024,34.447959999954
19409IR,IR,Iran,19409,Afshari,Afshari,Afshari,401000,ASI,Asia,5,"Asia, Central",Y,24,"Turkic Peoples",126,Azerbaijani,417000,1,Y,Y,8,300091,Afshari,100096,azb,"Azerbaijani, South",5,6,Islam,0.000,0.000,Y,,,,,Y,Y,48.733730000439,36.665654000332
21311IN,IN,India,21311,"Agamudaiyan Mukkulattar","Agamudaiyan Mukkulattar","Agamudaiyan Mukkulattar",2500,ASI,Asia,4,"Asia, South",Y,21,"South Asian Peoples",442,"South Asia Hindu - other",2500,1,Y,Y,1,309268,Agamudaiyan,118143,tam,Tamil,5,5,Hinduism,0.000,0.000,Y,,,,,Y,Y,79.984268882638,12.690151455931
21312IN,IN,India,21312,"Agamudaiyan Nattaman","Agamudaiyan Nattaman","Agamudaiyan Nattaman",782000,ASI,Asia,4,"Asia, South",Y,21,"South Asian Peoples",442,"South Asia Hindu - other",790900,1,Y,N,16,309268,Agamudaiyan,118144,tam,Tamil,5,5,Hinduism,0.194,,Y,,,,,Y,Y,78.593263629882,10.884500643346
16172IN,IN,India,16172,"Agamudaiyan unspecified",Agamudaiyan,"Agamudaiyan unspecified",258000,ASI,Asia,4,"Asia, South",Y,21,"South Asian Peoples",442,"South Asia Hindu - other",267400,1,Y,N,5,309268,Agamudaiyan,111274,tam,Tamil,5,5,Hinduism,0.504,,Y,,,,,Y,Y,78.977985001588,10.855101026211
16174IN,IN,India,16174,"Agariya (Hindu traditions)","Agariya (Hindu traditions)","Agariya (Hindu traditions)",246000,ASI,Asia,4,"Asia, South",Y,21,"South Asian Peoples",475,"South Asia Tribal - other",246000,1,Y,N,5,309205,"Agariya / Agaria",111276,agi,Agariya,0,5,Hinduism,0.288,,Y,,,,,N,Y,83.358143834705,23.492523304357
16175IN,IN,India,16175,"Agariya (Muslim traditions)","Agariya (Muslim traditions)","Agariya (Muslim traditions)",18000,ASI,Asia,4,"Asia, South",Y,21,"South Asian Peoples",462,"South Asia Muslim - other",19700,1,Y,Y,1,300095,Agaria,111277,urd,Urdu,5,6,Islam,0.000,0.000,Y,,,,,Y,Y,82.063336779221,26.608623462381
16175PK,PK,Pakistan,16175,"Agariya (Muslim traditions)","Agariya (Muslim traditions)","Agariya (Muslim traditions)",1700,ASI,Asia,4,"Asia, South",Y,21,"South Asian Peoples",462,"South Asia Muslim - other",19700,1,Y,Y,1,300095,Agaria,111277,snd,Sindhi,5,6,Islam,0.000,0.000,Y,,,,,Y,Y,69.2364876738,26.0106799326
16176IN,IN,India,16176,Agaru,Agaru,Agaru,1900,ASI,Asia,4,"Asia, South",Y,21,"South Asian Peoples",442,"South Asia Hindu - other",1900,1,Y,Y,1,300096,Agaru,111278,tel,Telugu,5,5,Hinduism,0.000,0.000,Y,,,,,Y,Y,84.827488648461,19.759554901125
19163IN,IN,India,19163,"Ager (Hindu traditions)","Ager (Hindu traditions)","Ager (Hindu traditions)",17000,ASI,Asia,4,"Asia, South",Y,21,"South Asian Peoples",412,"South Asia Dalit - other",18300,1,Y,Y,1,300103,Ager,111279,kan,Kannada,5,5,Hinduism,0.000,0.000,Y,,,,,Y,Y,74.834203904264,15.012106209228
19163PK,PK,Pakistan,19163,"Ager (Hindu traditions)","Ager (Hindu traditions)","Ager (Hindu traditions)",1300,ASI,Asia,4,"Asia, South",Y,21,"South Asian Peoples",412,"South Asia Dalit - other",18300,1,Y,Y,1,300103,Ager,111279,snd,Sindhi,5,5,Hinduism,0.000,0.000,Y,,,,,Y,Y,70.13657,24.77378
19476PK,PK,Pakistan,19476,"Ager (Muslim traditions)","Ager (Muslim traditions)","Ager (Muslim traditions)",8900,ASI,Asia,4,"Asia, South",Y,21,"South Asian Peoples",462,"South Asia Muslim - other",8900,1,Y,Y,1,300103,Ager,115240,snd,Sindhi,5,6,Islam,0.000,0.000,Y,,,,,Y,Y,68.512294615815,25.498444138806
16178IN,IN,India,16178,Aghori,Aghori,Aghori,82000,ASI,Asia,4,"Asia, South",Y,21,"South Asian Peoples",442,"South Asia Hindu - other",82000,1,Y,Y,2,300105,Aghori,111282,hin,Hindi,5,5,Hinduism,0.000,0.000,Y,"CC BY-SA 3.0",https://creativecommons.org/licenses/by-sa/3.0/,,,Y,Y,79.135460974084,26.660436411926
10184RS,RS,Russia,10184,Aghul,Aghul,Aghul,35000,ASI,Asia,9,"Europe, Eastern and Eurasia",N,12,"Eurasian Peoples",157,Caucasus,35000,1,Y,Y,1,300118,"Agul (Aghul)",100126,agx,Aghul,3,6,Islam,0.002,0.002,Y,,,,,N,N,47.55402,41.93085
16180IN,IN,India,16180,Agri,Agri,Agri,519000,ASI,Asia,4,"Asia, South",Y,21,"South Asian Peoples",442,"South Asia Hindu - other",519000,1,Y,Y,10,300112,Agri,111284,mar,Marathi,5,5,Hinduism,0.000,0.000,Y,,,,,Y,Y,73.485012081545,19.616625526919
12392RP,RP,Philippines,12392,"Agta, Casiguran Dumagat","Agta, Casiguran Dumagat","Casiguran Dumagat Agta",900,ASI,Asia,2,"Asia, Southeast",N,17,"Malay Peoples",168,"Filipino, Tribal",900,1,Y,N,1,302222,"Agta (Dumagat)",104350,dgc,"Agta, Casiguran Dumagat",4,4,"Ethnic Religions",4.000,1.000,Y,,,,,N,Y,121.87821,16.2176
16182BG,BG,Bangladesh,16182,Aguri,Aguri,Aguri,2600,ASI,Asia,4,"Asia, South",Y,21,"South Asian Peoples",442,"South Asia Hindu - other",620600,1,Y,Y,1,300120,Aguri,111287,ben,Bengali,5,5,Hinduism,0.000,0.000,Y,,,,,Y,Y,88.846610272225,25.867366725178
16182IN,IN,India,16182,Aguri,Aguri,Aguri,618000,ASI,Asia,4,"Asia, South",Y,21,"South Asian Peoples",442,"South Asia Hindu - other",620600,1,Y,N,12,300120,Aguri,111287,ben,Bengali,5,5,Hinduism,0.109,,Y,,,,,Y,Y,87.760220572264,23.198990738754
16184IN,IN,India,16184,Ahar,Ahar,Ahar,1719000,ASI,Asia,4,"Asia, South",Y,21,"South Asian Peoples",442,"South Asia Hindu - other",1721400,1,Y,Y,34,300128,Ahar,111289,hin,Hindi,5,5,Hinduism,0.000,0.000,Y,,,,,Y,Y,79.663813563315,28.830359322885
16184NP,NP,Nepal,16184,Ahar,Ahar,Ahar,2400,ASI,Asia,4,"Asia, South",Y,21,"South Asian Peoples",442,"South Asia Hindu - other",1721400,1,Y,Y,1,300128,Ahar,111289,awa,Awadhi,5,5,Hinduism,0.000,0.000,Y,,,,,Y,Y,83.090655901942,27.901461161429
16186IN,IN,India,16186,Aheria,Aheria,Aheria,199000,ASI,Asia,4,"Asia, South",Y,21,"South Asian Peoples",442,"South Asia Hindu - other",199000,1,Y,Y,4,300129,"Aheri / Aheria",111291,hin,Hindi,5,5,Hinduism,0.000,0.000,Y,,,,,Y,Y,78.698540941691,28.364607324423
13129TH,TH,Thailand,13129,"Aheu Luang","Aheu Luang",Aheu,1600,ASI,Asia,2,"Asia, Southeast",Y,20,"Southeast Asian Peoples",239,Mon-Khmer,2200,1,Y,Y,1,300130,Aheu,105894,thm,Aheu,1,2,Buddhism,0.000,0.000,Y,,,,,N,Y,103.44555,17.29381
19477BG,BG,Bangladesh,19477,Ahmadi,Ahmadi,Ahmadi,3200,ASI,Asia,4,"Asia, South",Y,21,"South Asian Peoples",462,"South Asia Muslim - other",187200,1,Y,Y,1,300134,Ahmadi,100142,ben,Bengali,5,6,Islam,0.000,0.000,Y,"CC BY 2.0",https://creativecommons.org/licenses/by/2.0/,,,Y,Y,90.550626727134,24.347617570298
19477IN,IN,India,19477,Ahmadi,Ahmadi,Ahmadi,87000,ASI,Asia,4,"Asia, South",Y,21,"South Asian Peoples",462,"South Asia Muslim - other",187200,1,Y,Y,2,300134,Ahmadi,100142,urd,Urdu,5,6,Islam,0.000,0.000,Y,"CC BY 2.0",https://creativecommons.org/licenses/by/2.0/,,,Y,Y,79.934697508141,28.324090639193
19477PK,PK,Pakistan,19477,Ahmadi,Ahmadi,Ahmadi,97000,ASI,Asia,4,"Asia, South",Y,21,"South Asian Peoples",462,"South Asia Muslim - other",187200,1,Y,Y,2,300134,Ahmadi,100142,pnb,"Punjabi, Western",4,6,Islam,0.000,0.000,Y,"CC BY 2.0",https://creativecommons.org/licenses/by/2.0/,,,Y,Y,74.375294970296,31.373386771445
16189IN,IN,India,16189,Ahom,Ahom,Ahom,2076000,ASI,Asia,4,"Asia, South",Y,21,"South Asian Peoples",475,"South Asia Tribal - other",2076000,1,Y,N,42,300136,Ahom,111294,asm,Assamese,5,5,Hinduism,3.301,,Y,"CC BY-SA 4.0",https://creativecommons.org/licenses/by-sa/4.0/,,,Y,Y,95.672003810937,27.906857670712
10195CH,CH,China,10195,Ai-Cham,Ai-Cham,Ai-Cham,3100,ASI,Asia,3,"Asia, Northeast",Y,20,"Southeast Asian Peoples",150,Bouyei,3100,1,Y,N,1,300138,Ai-Cham,100146,aih,Ai-Cham,1,4,"Ethnic Religions",0.500,0.200,Y,,,,,N,N,107.83808,25.48886
21454AF,AF,Afghanistan,21454,Aimaq,Aimaq,Aimaq,1730000,ASI,Asia,5,"Asia, Central",Y,14,Persian-Median,268,Persian,2256600,1,Y,Y,35,300142,Aimaq,118270,aiq,Aimaq,0,6,Islam,0.000,0.000,Y,"CC BY 2.0",https://creativecommons.org/licenses/by/2.0/,,,N,N,63.128594,35.00501
21454IR,IR,Iran,21454,Aimaq,Aimaq,Aimaq,250000,ASI,Asia,5,"Asia, Central",Y,14,Persian-Median,268,Persian,2256600,1,Y,Y,5,300142,Aimaq,118270,aiq,Aimaq,0,6,Islam,0.000,0.000,Y,"CC BY 2.0",https://creativecommons.org/licenses/by/2.0/,,,N,N,52.799751,36.24729
21454PK,PK,Pakistan,21454,Aimaq,Aimaq,Aimaq,6500,ASI,Asia,4,"Asia, South",Y,14,Persian-Median,268,Persian,2256600,1,Y,Y,1,300142,Aimaq,118270,aiq,Aimaq,0,6,Islam,0.000,0.000,N,"CC BY 2.0",https://creativecommons.org/licenses/by/2.0/,,,N,N,66.741,30.16909
21454TI,TI,Tajikistan,21454,Aimaq,Aimaq,Aimaq,1100,ASI,Asia,5,"Asia, Central",Y,14,Persian-Median,268,Persian,2256600,1,Y,Y,1,300142,Aimaq,118270,aiq,Aimaq,0,6,Islam,0.000,0.000,N,"CC BY 2.0",https://creativecommons.org/licenses/by/2.0/,,,N,N,68.78,38.59
21454TX,TX,Turkmenistan,21454,Aimaq,Aimaq,Aimaq,269000,ASI,Asia,5,"Asia, Central",Y,14,Persian-Median,268,Persian,2256600,1,Y,Y,5,300142,Aimaq,118270,aiq,Aimaq,0,6,Islam,0.000,0.000,N,"CC BY 2.0",https://creativecommons.org/licenses/by/2.0/,,,N,N,61.855,37.565
10522CH,CH,China,10522,"Ainu (China)","Ainu (China)",Ainu,12000,ASI,Asia,3,"Asia, Northeast",Y,24,"Turkic Peoples",311,Ural-Siberian,12000,1,Y,Y,1,300618,"Aynu (Ainu)",100665,aib,"Ainu (China)",1,6,Islam,0.000,0.000,Y,,,,,N,N,76.169595641825,38.930205258566
10205JA,JA,Japan,10205,"Ainu (Japan)","Ainu (Japan)",Ainu,13000,ASI,Asia,3,"Asia, Northeast",Y,24,"Turkic Peoples",311,Ural-Siberian,13000,1,Y,N,1,300146,Ainu,100158,ain,"Ainu (Japan)",4,4,"Ethnic Religions",1.000,0.500,Y,"CC BY-SA 3.0",https://creativecommons.org/licenses/by-sa/3.0/,,,N,N,144.97993613944,43.551895115567
16191IN,IN,India,16191,"Aiton (Tai Aiton)","Aiton (Tai Aiton)","Aiton (Tai Aiton)",3900,ASI,Asia,4,"Asia, South",Y,21,"South Asian Peoples",402,"South Asia Buddhist",3900,1,Y,Y,1,300150,Aiton,111299,aio,Aiton,2,2,Buddhism,0.000,0.000,Y,"CC BY-SA 4.0",https://creativecommons.org/licenses/by-sa/4.0/,,,N,Y,93.685431192118,26.203734507863
16192IN,IN,India,16192,Aiyanavar,Aiyanavar,Aiyanavar,6400,ASI,Asia,4,"Asia, South",Y,21,"South Asian Peoples",442,"South Asia Hindu - other",6400,1,Y,N,1,300151,Ayyanavar,111300,tel,Telugu,5,5,Hinduism,3.867,,Y,,,,,Y,Y,77.340540815888,9.1021684321707
18950ID,ID,Indonesia,18950,Aji,Aji,Aji,17000,ASI,Asia,2,"Asia, Southeast",Y,17,"Malay Peoples",229,"Melayu of Sumatra",17000,1,Y,N,1,302933,"Aji (Haji)",115228,hji,Haji,0,6,Islam,0.270,0.266,Y,,,,,N,N,103.97931,-4.58495
16193IN,IN,India,16193,Ajila,Ajila,Ajila,3900,ASI,Asia,4,"Asia, South",Y,21,"South Asian Peoples",412,"South Asia Dalit - other",3900,1,Y,Y,1,300156,Ajila,111301,mal,Malayalam,5,5,Hinduism,0.000,0.000,Y,,,,,Y,Y,75.849547843511,13.021820078824
16194IN,IN,India,16194,Ajna,Ajna,Ajna,49000,ASI,Asia,4,"Asia, South",Y,21,"South Asian Peoples",442,"South Asia Hindu - other",49000,1,Y,Y,1,300337,Anjana,111302,hin,Hindi,5,5,Hinduism,0.000,0.000,Y,,,,,Y,Y,76.380809546848,22.851390068757
10216KE,KE,Kenya,10216,"Ajuran, Borana-speaking","Ajuran, Borana-speaking","Borana speaking Ajuran",182000,AFR,Africa,7,"Africa, East and Southern",N,13,"Horn of Africa Peoples",256,Oromo,182000,1,Y,N,4,300159,Ajuran,100175,gax,"Oromo, Borana-Arsi-Guji",5,6,Islam,0.400,0.300,Y,"CC BY-SA 2.0",https://creativecommons.org/licenses/by-sa/2.0/,,,Y,Y,41.852980576392,3.9369541532116
14984KE,KE,Kenya,14984,"Ajuran, Somali-speaking","Ajuran, Somali-speaking","Somali speaking Ajuran",191000,AFR,Africa,7,"Africa, East and Southern",N,13,"Horn of Africa Peoples",287,Somali,191000,1,Y,Y,4,307625,Somali,109394,som,Somali,5,6,Islam,0.100,0.080,Y,,,,,Y,Y,40.102051231304,0.53751170145256
15899BR,BR,Brazil,15899,Ajuru,Ajuru,Ajuru,300,LAM,"South America",11,"America, Latin",N,16,"Latin-Caribbean Americans",290,"South American Indigenous",300,1,Y,N,1,308769,"Wayoro / Ajuru",110732,por,Portuguese,5,4,"Ethnic Religions",5.000,0.000,Y,,,,,Y,Y,-61.26331,-12.58836
11297TO,TO,Togo,11297,Akasselem,Akasselem,Akasselem,79000,AFR,Africa,8,"Africa, West and Central",N,22,"Sub-Saharan Peoples",183,Gur,79000,1,Y,N,2,300162,Akaselem,101992,aks,Akaselem,3,6,Islam,1.200,1.100,Y,,,,,N,Y,1.39799,8.85819
18899CH,CH,China,18899,Akeu,Akeu,Akeu,11000,ASI,Asia,3,"Asia, Northeast",Y,23,"Tibetan-Himalayan Peoples",317,"Tibeto-Burman, other",15900,1,Y,Y,1,300168,Akeu,114852,aeu,Akeu,4,4,"Ethnic Religions",0.000,0.000,Y,,,,,Y,Y,101.08233,22.19587
18899LA,LA,Laos,18899,Akeu,Akeu,Akeu,3300,ASI,Asia,2,"Asia, Southeast",Y,23,"Tibetan-Himalayan Peoples",317,"Tibeto-Burman, other",15900,1,Y,N,1,300168,Akeu,114852,aeu,Akeu,4,4,"Ethnic Religions",0.723,0.723,N,,,,,Y,Y,101.74631959287,22.438382506747
10223CH,CH,China,10223,Akha,Akha,Akha,259000,ASI,Asia,3,"Asia, Northeast",Y,23,"Tibetan-Himalayan Peoples",185,Hani,683000,1,Y,N,5,300169,Akha,100185,ahk,Akha,5,4,"Ethnic Religions",0.350,0.309,N,"CC BY 2.0",https://creativecommons.org/licenses/by/2.0/,,,Y,Y,100.09309,21.952
10223LA,LA,Laos,10223,Akha,Akha,Akha,121000,ASI,Asia,2,"Asia, Southeast",Y,23,"Tibetan-Himalayan Peoples",185,Hani,683000,1,Y,N,2,300169,Akha,100185,ahk,Akha,5,4,"Ethnic Religions",3.000,2.000,Y,"CC BY 2.0",https://creativecommons.org/licenses/by/2.0/,,,Y,Y,101.84576514894,21.489835474927
10223VM,VM,Vietnam,10223,Akha,Akha,Akha,23000,ASI,Asia,2,"Asia, Southeast",Y,23,"Tibetan-Himalayan Peoples",185,Hani,683000,1,Y,N,1,300169,Akha,100185,ahk,Akha,5,4,"Ethnic Religions",5.000,0.300,N,"CC BY 2.0",https://creativecommons.org/licenses/by/2.0/,,,Y,Y,102.67736,21.72406
10224RS,RS,Russia,10224,Akhvakh,Akhvakh,Akhvakh,6700,ASI,Asia,9,"Europe, Eastern and Eurasia",N,12,"Eurasian Peoples",157,Caucasus,6700,1,Y,Y,1,300172,Akhvakh,100187,akv,Akhvakh,0,6,Islam,0.029,0.029,Y,,,,,N,N,46.32616,42.38476
20318RS,RS,Russia,20318,Akkin,Akkin,Akkin,103000,ASI,Asia,9,"Europe, Eastern and Eurasia",N,12,"Eurasian Peoples",157,Caucasus,103000,1,Y,Y,2,300173,Akkin,116039,che,Chechen,5,6,Islam,0.004,0.004,Y,"CC BY-NC 2.0",https://creativecommons.org/licenses/by-nc/2.0/,,,Y,Y,47.4245,41.815425
18389CH,CH,China,18389,"Akto Turkmen","Akto Turkmen","Akto Turkmen",2900,ASI,Asia,3,"Asia, Northeast",Y,24,"Turkic Peoples",204,Kyrgyz,2900,1,Y,Y,1,309187,"Turkmen (Akto)",113982,uig,Uyghur,5,6,Islam,0.000,0.000,Y,,,,,Y,Y,75.938287562721,39.153385214656
10255ET,ET,Ethiopia,10255,Alaba,Alaba,Alaba,419000,AFR,Africa,7,"Africa, East and Southern",Y,13,"Horn of Africa Peoples",253,Omotic,419000,1,Y,N,8,300215,"Allaaba (Alaba)",100232,alw,Alaba-K'abeena,4,6,Islam,2.600,1.400,Y,,,,,Y,Y,38.18248,7.46586
10242TZ,TZ,Tanzania,10242,Alagwa,Alagwa,Alagwa,64000,AFR,Africa,7,"Africa, East and Southern",N,22,"Sub-Saharan Peoples",262,"Sub-Saharan African, other",64000,1,Y,Y,1,300197,"Alagwa (Wasi)",100210,wbj,Alagwa,3,6,Islam,0.020,0.020,Y,,,,,Y,Y,35.69243,-4.72559
10243LA,LA,Laos,10243,Alak,Alak,Alak,27000,ASI,Asia,2,"Asia, Southeast",Y,20,"Southeast Asian Peoples",239,Mon-Khmer,27000,1,Y,N,1,300198,Alak,100212,alk,Alak,0,4,"Ethnic Religions",1.100,1.058,Y,,,,,N,Y,106.60577,15.55701
17333IN,IN,India,17333,"Alambadi Kurichchan","Alambadi Kurichchan","Alambadi Kurichchan",51000,ASI,Asia,4,"Asia, South",Y,21,"South Asian Peoples",475,"South Asia Tribal - other",51000,1,Y,N,1,304415,Kuriciyan,112716,kfh,Kurichiya,2,5,Hinduism,4.615,,Y,,,,,N,Y,76.413818777084,11.997245729721
10246ID,ID,Indonesia,10246,Alas,Alas,Alas,93000,ASI,Asia,2,"Asia, Southeast",Y,17,"Malay Peoples",101,"Aceh of Sumatra",93000,1,Y,Y,2,300201,Alas,100215,btz,"Batak Alas-Kluet",3,6,Islam,0.010,0.005,Y,,,,,Y,N,97.831208411939,3.4480978290516
16200IN,IN,India,16200,Alavan,Alavan,Alavan,9300,ASI,Asia,4,"Asia, South",Y,21,"South Asian Peoples",442,"South Asia Hindu - other",9300,1,Y,Y,1,300205,Alavan,111309,tam,Tamil,5,5,Hinduism,0.000,0.000,Y,,,,,Y,Y,77.370172727131,8.8814349457109
18805IS,IS,Israel,18805,Alawite,Alawite,Alawite,2200,ASI,Asia,6,"Africa, North and Middle East",Y,10,"Arab World",113,"Arab, Levant",2367200,1,Y,Y,1,300206,Alawite,114499,apc,"Arabic, Levantine",3,6,Islam,0.000,0.000,Y,,,"CC BY-SA 3.0",https://creativecommons.org/licenses/by-sa/3.0/,N,Y,35.57163248685,33.212688092581
18805LE,LE,Lebanon,18805,Alawite,Alawite,Alawite,127000,ASI,Asia,6,"Africa, North and Middle East",Y,10,"Arab World",113,"Arab, Levant",2367200,1,Y,Y,3,300206,Alawite,114499,apc,"Arabic, Levantine",3,6,Islam,0.000,0.000,Y,,,"CC BY-SA 3.0",https://creativecommons.org/licenses/by-sa/3.0/,N,Y,35.852326140939,34.440526938667
18805SY,SY,Syria,18805,Alawite,Alawite,Alawite,1674000,ASI,Asia,6,"Africa, North and Middle East",Y,10,"Arab World",113,"Arab, Levant",2367200,1,Y,Y,33,300206,Alawite,114499,apc,"Arabic, Levantine",3,6,Islam,0.021,0.021,Y,,,,,N,Y,35.825260999895,35.552378000045
18805TU,TU,"Türkiye (Turkey)",18805,Alawite,Alawite,Alawite,564000,ASI,Asia,5,"Asia, Central",Y,10,"Arab World",113,"Arab, Levant",2367200,1,Y,Y,11,300206,Alawite,114499,apc,"Arabic, Levantine",3,6,Islam,0.030,0.010,Y,,,,,N,Y,38.582409,37.037484
11880DA,DA,Denmark,11880,Albanian,Albanian,Albanian,1400,EUR,Europe,10,"Europe, Western",N,12,"Eurasian Peoples",106,Albanian,5121900,1,Y,N,1,300207,Albanian,103338,aln,"Albanian, Gheg",4,6,Islam,5.000,1.000,N,,,,,Y,Y,12.481486,55.619307
11880KV,KV,Kosovo,11880,Albanian,Albanian,Albanian,1497000,EUR,Europe,9,"Europe, Eastern and Eurasia",N,12,"Eurasian Peoples",106,Albanian,5121900,1,Y,N,30,300207,Albanian,103338,aln,"Albanian, Gheg",4,6,Islam,2.000,0.200,Y,,,"CC BY 3.0",https://creativecommons.org/licenses/by/3.0/,Y,Y,20.86907,42.52994
11880NL,NL,Netherlands,11880,Albanian,Albanian,Albanian,600,EUR,Europe,10,"Europe, Western",N,12,"Eurasian Peoples",106,Albanian,5121900,1,Y,N,1,300207,Albanian,103338,aln,"Albanian, Gheg",4,6,Islam,2.000,1.000,N,,,,,Y,Y,4.886575,52.417543
11880SW,SW,Sweden,11880,Albanian,Albanian,Albanian,5300,EUR,Europe,10,"Europe, Western",N,12,"Eurasian Peoples",106,Albanian,5121900,1,Y,N,1,300207,Albanian,103338,aln,"Albanian, Gheg",4,6,Islam,3.000,0.300,N,,,,,Y,Y,17.983439,59.361521
21527MK,MK,"North Macedonia",21527,"Albanian, Macedonian","Albanian, Macedonian","Macedonian Albanian",521000,EUR,Europe,9,"Europe, Eastern and Eurasia",N,12,"Eurasian Peoples",106,Albanian,521000,1,Y,Y,10,300207,Albanian,118333,aln,"Albanian, Gheg",4,6,Islam,0.000,0.000,Y,"CC BY 2.0",https://creativecommons.org/licenses/by/2.0/,,,Y,Y,20.67967,41.44288
22384SU,SU,Sudan,22384,Alehemir,Alehemir,Alehemir,2000,AFR,Africa,7,"Africa, East and Southern",Y,22,"Sub-Saharan Peoples",248,"Nuba Mountains",2000,1,Y,Y,1,309301,Alehemir,119383,xtc,Katcha-Kadugli-Miri,4,6,Islam,0.000,0.000,Y,,,,,Y,Y,29.41,10.89
11682RS,RS,Russia,11682,"Aleut, Eastern","Aleut, Eastern","Eastern Aleut",400,ASI,Asia,9,"Europe, Eastern and Eurasia",N,24,"Turkic Peoples",311,Ural-Siberian,2800,1,Y,N,1,300209,Aleut,102826,ale,Aleut,3,7,Non-Religious,1.000,0.600,Y,,,,,N,Y,166.22634,55.06896
10379AG,AG,Algeria,10379,"Algerian, Arabic-speaking","Algerian, Arabic-speaking","Arabic-speaking Algerian",33118000,AFR,Africa,6,"Africa, North and Middle East",Y,10,"Arab World",115,"Arab, Maghreb",36747900,1,Y,Y,662,300394,"Arab, Algerian",100226,arq,"Arabic, Algerian",4,6,Islam,0.009,0.008,Y,"CC0 1.0",https://creativecommons.org/publicdomain/zero/1.0/,,,Y,Y,5.3894385742308,35.997424582778
10379BE,BE,Belgium,10379,"Algerian, Arabic-speaking","Algerian, Arabic-speaking","Arabic-speaking Algerian",53000,EUR,Europe,10,"Europe, Western",N,10,"Arab World",115,"Arab, Maghreb",36747900,1,Y,N,1,300394,"Arab, Algerian",100226,arq,"Arabic, Algerian",4,6,Islam,1.000,0.500,N,"CC0 1.0",https://creativecommons.org/publicdomain/zero/1.0/,,,Y,Y,4.4137158567014,51.219426763035
10379CA,CA,Canada,10379,"Algerian, Arabic-speaking","Algerian, Arabic-speaking","Arabic-speaking Algerian",69000,NAR,"North America",12,"America, North and Caribbean",N,10,"Arab World",115,"Arab, Maghreb",36747900,1,Y,N,1,300394,"Arab, Algerian",100226,arq,"Arabic, Algerian",4,6,Islam,1.000,0.900,N,"CC0 1.0",https://creativecommons.org/publicdomain/zero/1.0/,,,Y,Y,-75.698043,45.423482
10379DA,DA,Denmark,10379,"Algerian, Arabic-speaking","Algerian, Arabic-speaking","Arabic-speaking Algerian",900,EUR,Europe,10,"Europe, Western",N,10,"Arab World",115,"Arab, Maghreb",36747900,1,Y,N,1,300394,"Arab, Algerian",100226,arq,"Arabic, Algerian",4,6,Islam,2.000,2.000,N,"CC0 1.0",https://creativecommons.org/publicdomain/zero/1.0/,,,Y,Y,12.58423,55.75894
10379EG,EG,Egypt,10379,"Algerian, Arabic-speaking","Algerian, Arabic-speaking","Arabic-speaking Algerian",2027000,AFR,Africa,6,"Africa, North and Middle East",Y,10,"Arab World",115,"Arab, Maghreb",36747900,1,Y,Y,41,300394,"Arab, Algerian",100226,arq,"Arabic, Algerian",4,6,Islam,0.019,0.012,N,"CC0 1.0",https://creativecommons.org/publicdomain/zero/1.0/,,,Y,Y,31.125889999624,30.444790000258
10379EZ,EZ,Czechia,10379,"Algerian, Arabic-speaking","Algerian, Arabic-speaking","Arabic-speaking Algerian",500,EUR,Europe,9,"Europe, Eastern and Eurasia",N,10,"Arab World",115,"Arab, Maghreb",36747900,1,Y,N,1,300394,"Arab, Algerian",100226,arq,"Arabic, Algerian",4,6,Islam,0.300,0.200,N,"CC0 1.0",https://creativecommons.org/publicdomain/zero/1.0/,,,Y,Y,14.606165,50.086834
10379FR,FR,France,10379,"Algerian, Arabic-speaking","Algerian, Arabic-speaking","Arabic-speaking Algerian",473000,EUR,Europe,10,"Europe, Western",N,10,"Arab World",115,"Arab, Maghreb",36747900,1,Y,N,9,300394,"Arab, Algerian",100226,arq,"Arabic, Algerian",4,6,Islam,0.600,0.100,N,"CC0 1.0",https://creativecommons.org/publicdomain/zero/1.0/,,,Y,Y,2.1919078051011,48.875747980085
10379GM,GM,Germany,10379,"Algerian, Arabic-speaking","Algerian, Arabic-speaking","Arabic-speaking Algerian",79000,EUR,Europe,10,"Europe, Western",N,10,"Arab World",115,"Arab, Maghreb",36747900,1,Y,N,2,300394,"Arab, Algerian",100226,arq,"Arabic, Algerian",4,6,Islam,0.300,0.200,N,"CC0 1.0",https://creativecommons.org/publicdomain/zero/1.0/,,,Y,Y,8.662787,50.117688
10379IT,IT,Italy,10379,"Algerian, Arabic-speaking","Algerian, Arabic-speaking","Arabic-speaking Algerian",21000,EUR,Europe,10,"Europe, Western",N,10,"Arab World",115,"Arab, Maghreb",36747900,1,Y,N,1,300394,"Arab, Algerian",100226,arq,"Arabic, Algerian",4,6,Islam,2.000,1.100,N,"CC0 1.0",https://creativecommons.org/publicdomain/zero/1.0/,,,Y,Y,13.347806,38.114192
10379LY,LY,Libya,10379,"Algerian, Arabic-speaking","Algerian, Arabic-speaking","Arabic-speaking Algerian",295000,AFR,Africa,6,"Africa, North and Middle East",Y,10,"Arab World",115,"Arab, Maghreb",36747900,1,Y,Y,6,300394,"Arab, Algerian",100226,arq,"Arabic, Algerian",4,6,Islam,0.100,0.030,N,"CC0 1.0",https://creativecommons.org/publicdomain/zero/1.0/,,,Y,Y,13.204459,32.85696
10379MO,MO,Morocco,10379,"Algerian, Arabic-speaking","Algerian, Arabic-speaking","Arabic-speaking Algerian",52000,AFR,Africa,6,"Africa, North and Middle East",Y,10,"Arab World",115,"Arab, Maghreb",36747900,1,Y,N,1,300394,"Arab, Algerian",100226,arq,"Arabic, Algerian",4,6,Islam,0.250,0.134,Y,"CC0 1.0",https://creativecommons.org/publicdomain/zero/1.0/,,,Y,Y,-6.9418823218003,33.218923314992
10379NG,NG,Niger,10379,"Algerian, Arabic-speaking","Algerian, Arabic-speaking","Arabic-speaking Algerian",11000,AFR,Africa,8,"Africa, West and Central",Y,10,"Arab World",115,"Arab, Maghreb",36747900,1,Y,N,1,300394,"Arab, Algerian",100226,arq,"Arabic, Algerian",4,6,Islam,0.200,0.200,N,"CC0 1.0",https://creativecommons.org/publicdomain/zero/1.0/,,,Y,Y,2.124423,13.508179
10379NL,NL,Netherlands,10379,"Algerian, Arabic-speaking","Algerian, Arabic-speaking","Arabic-speaking Algerian",94000,EUR,Europe,10,"Europe, Western",N,10,"Arab World",115,"Arab, Maghreb",36747900,1,Y,N,2,300394,"Arab, Algerian",100226,arq,"Arabic, Algerian",4,6,Islam,0.500,0.050,N,"CC0 1.0",https://creativecommons.org/publicdomain/zero/1.0/,,,Y,Y,4.7563700001754,52.345282999911
10379SP,SP,Spain,10379,"Algerian, Arabic-speaking","Algerian, Arabic-speaking","Arabic-speaking Algerian",61000,EUR,Europe,10,"Europe, Western",N,10,"Arab World",115,"Arab, Maghreb",36747900,1,Y,N,1,300394,"Arab, Algerian",100226,arq,"Arabic, Algerian",4,6,Islam,1.000,0.500,N,"CC0 1.0",https://creativecommons.org/publicdomain/zero/1.0/,,,Y,Y,-3.658837,40.451717
10379SW,SW,Sweden,10379,"Algerian, Arabic-speaking","Algerian, Arabic-speaking","Arabic-speaking Algerian",2500,EUR,Europe,10,"Europe, Western",N,10,"Arab World",115,"Arab, Maghreb",36747900,1,Y,Y,1,300394,"Arab, Algerian",100226,arq,"Arabic, Algerian",4,6,Islam,0.000,0.000,N,"CC0 1.0",https://creativecommons.org/publicdomain/zero/1.0/,,,Y,Y,17.969431,59.358798
10379TS,TS,Tunisia,10379,"Algerian, Arabic-speaking","Algerian, Arabic-speaking","Arabic-speaking Algerian",295000,AFR,Africa,6,"Africa, North and Middle East",Y,10,"Arab World",115,"Arab, Maghreb",36747900,1,Y,N,6,300394,"Arab, Algerian",100226,arq,"Arabic, Algerian",4,6,Islam,0.280,0.200,N,"CC0 1.0",https://creativecommons.org/publicdomain/zero/1.0/,,,Y,Y,8.6840089998155,36.665119999988
10379TU,TU,"Türkiye (Turkey)",10379,"Algerian, Arabic-speaking","Algerian, Arabic-speaking","Arabic-speaking Algerian",11000,ASI,Asia,5,"Asia, Central",Y,10,"Arab World",115,"Arab, Maghreb",36747900,1,Y,Y,1,300394,"Arab, Algerian",100226,arq,"Arabic, Algerian",4,6,Islam,0.000,0.000,N,"CC0 1.0",https://creativecommons.org/publicdomain/zero/1.0/,,,Y,Y,33,39.97
10379US,US,"United States",10379,"Algerian, Arabic-speaking","Algerian, Arabic-speaking","Arabic-speaking Algerian",61000,NAR,"North America",12,"America, North and Caribbean",N,10,"Arab World",115,"Arab, Maghreb",36747900,1,Y,Y,1,300394,"Arab, Algerian",100226,arq,"Arabic, Algerian",4,6,Islam,0.000,0.000,N,"CC0 1.0",https://creativecommons.org/publicdomain/zero/1.0/,,,Y,Y,-77.201859084229,39.035496483476
10379UV,UV,"Burkina Faso",10379,"Algerian, Arabic-speaking","Algerian, Arabic-speaking","Arabic-speaking Algerian",24000,AFR,Africa,8,"Africa, West and Central",Y,10,"Arab World",115,"Arab, Maghreb",36747900,1,Y,Y,1,300394,"Arab, Algerian",100226,arq,"Arabic, Algerian",4,6,Islam,0.039,0.004,N,"CC0 1.0",https://creativecommons.org/publicdomain/zero/1.0/,,,Y,Y,-1.2666909927951,14.009553990025
16201IN,IN,India,16201,Alia,Alia,Alia,67000,ASI,Asia,4,"Asia, South",Y,21,"South Asian Peoples",442,"South Asia Hindu - other",67000,1,Y,Y,1,303449,"Kachchi / Kachhi",111310,ory,Odia,5,5,Hinduism,0.000,0.000,Y,,,,,Y,Y,85.028285307127,19.672881040067
18390CH,CH,China,18390,Aling,Aling,Aling,8300,ASI,Asia,3,"Asia, Northeast",Y,23,"Tibetan-Himalayan Peoples",317,"Tibeto-Burman, other",8300,1,Y,Y,1,300212,Aling,113983,yig,"Nasu, Wusa",4,4,"Ethnic Religions",0.000,0.000,Y,,,,,N,Y,103.80294450668,24.938008863119
21463ID,ID,Indonesia,21463,Allu,Allu,Allu,17000,ASI,Asia,2,"Asia, Southeast",Y,17,"Malay Peoples",152,"Bugi-Makassar of Sulawesi",17000,1,Y,Y,1,300217,Allu,118277,mdr,Mandar,3,6,Islam,0.000,0.000,Y,,,,,Y,Y,118.953039,-3.306608
10256RS,RS,Russia,10256,Altai-Kizhi,Altai,Altai-Kizhi,83000,ASI,Asia,9,"Europe, Eastern and Eurasia",N,24,"Turkic Peoples",311,Ural-Siberian,83600,1,Y,N,2,300221,Altai,100235,alt,"Altai, Southern",4,4,"Ethnic Religions",2.000,0.333,Y,"CC BY-SA 2.0",https://creativecommons.org/licenses/by-sa/2.0/,,,Y,Y,85.41213,50.87839
18886CH,CH,China,18886,Alu,Alu,Alu,4000,ASI,Asia,3,"Asia, Northeast",Y,23,"Tibetan-Himalayan Peoples",317,"Tibeto-Burman, other",15400,1,Y,Y,1,300222,"Alu (Lolo Yi)",114830,nos,"Nisu, Eastern",1,4,"Ethnic Religions",0.000,0.000,N,,,,,N,Y,102.94476,23.10906
18886LA,LA,Laos,18886,Alu,Alu,Alu,7500,ASI,Asia,2,"Asia, Southeast",Y,23,"Tibetan-Himalayan Peoples",317,"Tibeto-Burman, other",15400,1,Y,Y,1,300222,"Alu (Lolo Yi)",114830,nsd,"Nisu, Southern",3,4,"Ethnic Religions",0.000,0.000,N,,,,,Y,N,101.67858643532,22.255026298025
18886VM,VM,Vietnam,18886,Alu,Alu,Alu,3900,ASI,Asia,2,"Asia, Southeast",Y,23,"Tibetan-Himalayan Peoples",317,"Tibeto-Burman, other",15400,1,Y,N,1,300222,"Alu (Lolo Yi)",114830,nos,"Nisu, Eastern",1,4,"Ethnic Religions",0.190,0.000,N,,,,,N,Y,105.836177,21.012465
21074CH,CH,China,21074,Alugu,Alugu,Alugu,3600,ASI,Asia,3,"Asia, Northeast",Y,23,"Tibetan-Himalayan Peoples",317,"Tibeto-Burman, other",3600,1,Y,Y,1,300224,Alugu,116100,aub,Alugu,1,4,"Ethnic Religions",0.000,0.000,Y,,,,,N,N,103.120791,23.016706
18391CH,CH,China,18391,Aluo,Aluo,Aluo,28000,ASI,Asia,3,"Asia, Northeast",Y,23,"Tibetan-Himalayan Peoples",317,"Tibeto-Burman, other",28000,1,Y,Y,1,300227,Aluo,113984,yna,Aluo,0,4,"Ethnic Religions",0.000,0.000,Y,,,,,N,N,102.18097,26.23548
19634RS,RS,Russia,19634,Alutor,Alutor,Alutor,2000,ASI,Asia,9,"Europe, Eastern and Eurasia",N,24,"Turkic Peoples",311,Ural-Siberian,2000,1,Y,Y,1,300229,Alutor,100239,rus,Russian,5,4,"Ethnic Religions",0.000,0.000,Y,,,,,Y,Y,165.59234,60.39587
10262PE,PE,Peru,10262,"Amahuaca, Ipitineri",Amawaka,Amahuaca,400,LAM,"South America",11,"America, Latin",N,16,"Latin-Caribbean Americans",290,"South American Indigenous",600,1,Y,N,1,300235,"Amahuaca (Amawaka)",100245,amc,Amahuaca,3,4,"Ethnic Religions",5.000,0.300,Y,,,,,N,Y,-73.43327,-10.4072
14009JA,JA,Japan,14009,"Amami-Oshima, Northern","Amami-Oshima, Northern","Northern Amami-Oshima",9500,ASI,Asia,3,"Asia, Northeast",Y,11,"East Asian Peoples",194,Japanese,9500,1,Y,N,1,300238,Amami-Oshima,107434,ryn,"Amami-Oshima, Northern",0,2,Buddhism,1.000,0.453,Y,,,,,N,N,129.47076,28.33957
15031JA,JA,Japan,15031,"Amami-Oshima, Southern","Amami-Oshima, Southern","Southern Amami-Oshima",1700,ASI,Asia,3,"Asia, Northeast",Y,11,"East Asian Peoples",194,Japanese,1700,1,Y,N,1,300238,Amami-Oshima,109465,ams,"Amami-Oshima, Southern",0,2,Buddhism,3.000,0.500,Y,,,,,N,N,129.34069,28.21271
10268PE,PE,Peru,10268,"Amarakaire, Harakmbet","Amarakaire, Harakmbet",Amarakaire,2200,LAM,"South America",11,"America, Latin",N,16,"Latin-Caribbean Americans",290,"South American Indigenous",2200,1,Y,N,1,300244,Amarakaire,100255,amr,Amarakaeri,4,4,"Ethnic Religions",0.600,0.500,Y,"CC BY 2.0",https://creativecommons.org/licenses/by/2.0/,,,N,Y,-70.58001,-12.5934
16206IN,IN,India,16206,Amat,Amat,Amat,321000,ASI,Asia,4,"Asia, South",Y,21,"South Asian Peoples",442,"South Asia Hindu - other",324500,1,Y,Y,6,300248,"Amant / Amat",111315,hin,Hindi,5,5,Hinduism,0.000,0.000,Y,,,,,Y,Y,86.440206,26.288614
16206NP,NP,Nepal,16206,Amat,Amat,Amat,3500,ASI,Asia,4,"Asia, South",Y,21,"South Asian Peoples",442,"South Asia Hindu - other",324500,1,Y,Y,1,300248,"Amant / Amat",111315,mai,Maithili,4,5,Hinduism,0.000,0.000,Y,,,,,Y,Y,86.513675763014,27.177469572244
12344TS,TS,Tunisia,12344,"Amazigh, Djerba","Amazigh, Djerba","Djerba Amazigh",11000,AFR,Africa,6,"Africa, North and Middle East",Y,10,"Arab World",141,Berber-Saharan,11000,1,Y,N,1,301088,"Berber, Saharan",104234,jbn,Nafusi,3,6,Islam,0.500,0.100,Y,,,,,N,N,9.8332900003332,33.439830000254
20968TS,TS,Tunisia,20968,"Amazigh, Gafsa","Amazigh, Gafsa","Gafsa Amazigh",8800,AFR,Africa,6,"Africa, North and Middle East",Y,10,"Arab World",141,Berber-Saharan,8800,1,Y,Y,1,301088,"Berber, Saharan",117607,aeb,"Arabic, Tunisian",4,6,Islam,0.000,0.000,Y,,,,,Y,Y,8.778132,34.424258
13587TS,TS,Tunisia,13587,"Amazigh, Matmata","Amazigh, Matmata","Matmata Amazigh",5900,AFR,Africa,6,"Africa, North and Middle East",Y,10,"Arab World",141,Berber-Saharan,5900,1,Y,Y,1,305274,Matmata,106405,grr,Taznatit,3,6,Islam,0.000,0.000,Y,"CC BY-NC-SA 2.0",https://creativecommons.org/licenses/by-nc-sa/2.0/,,,N,N,9.8342456963941,33.449904626854
20967TS,TS,Tunisia,20967,"Amazigh, Siliana","Amazigh, Siliana","Siliana Amazigh",900,AFR,Africa,6,"Africa, North and Middle East",Y,10,"Arab World",141,Berber-Saharan,900,1,Y,Y,1,301088,"Berber, Saharan",117608,aeb,"Arabic, Tunisian",4,6,Islam,0.000,0.000,Y,"CC BY-SA 4.0",https://creativecommons.org/licenses/by-sa/4.0/,,,Y,Y,9.37472,36.08194
20965TS,TS,Tunisia,20965,"Amazigh, Tataouine","Amazigh, Tataouine","Tataouine Amazigh",4800,AFR,Africa,6,"Africa, North and Middle East",Y,10,"Arab World",141,Berber-Saharan,4800,1,Y,Y,1,301088,"Berber, Saharan",117609,jbn,Nafusi,3,6,Islam,0.000,0.000,Y,,,,,N,N,10.456545,32.9233
20966TS,TS,Tunisia,20966,"Amazigh, Zaghouan","Amazigh, Zaghouan","Zaghouan Amazigh",4200,AFR,Africa,6,"Africa, North and Middle East",Y,10,"Arab World",141,Berber-Saharan,4200,1,Y,Y,1,301088,"Berber, Saharan",117610,aeb,"Arabic, Tunisian",4,6,Islam,0.000,0.000,Y,,,,,Y,Y,10.143081,36.406022
16207IN,IN,India,16207,Ambalavasi,Ambalavasi,Ambalavasi,188000,ASI,Asia,4,"Asia, South",Y,21,"South Asian Peoples",442,"South Asia Hindu - other",204000,1,Y,N,4,300252,Ambalavasi,111316,mal,Malayalam,5,5,Hinduism,0.303,,Y,"CC0 1.0",https://creativecommons.org/publicdomain/zero/1.0/,,,Y,Y,77.166022375536,11.085791780674
21084IN,IN,India,21084,"Ambalavasi Kambalattu","Ambalavasi Kambalattu","Kambalattu Ambalavasi",3400,ASI,Asia,4,"Asia, South",Y,21,"South Asian Peoples",442,"South Asia Hindu - other",3400,1,Y,N,1,300252,Ambalavasi,117908,tam,Tamil,5,5,Hinduism,1.398,,Y,,,,,Y,Y,77.116473953486,10.851297075291
21085IN,IN,India,21085,"Ambalavasi Tottiyan Naicker","Ambalavasi Tottiyan Naicker","Tottiyan Naicker Ambalavasi",13000,ASI,Asia,4,"Asia, South",Y,21,"South Asian Peoples",442,"South Asia Hindu - other",13000,1,Y,N,1,300252,Ambalavasi,117909,tam,Tamil,5,5,Hinduism,0.812,,Y,,,,,Y,Y,77.114632709596,10.850213820679
16208IN,IN,India,16208,"Ambattan (Hindu traditions)","Ambattan (Hindu traditions)","Ambattan (Hindu traditions)",214000,ASI,Asia,4,"Asia, South",Y,21,"South Asian Peoples",442,"South Asia Hindu - other",214000,1,Y,Y,4,300256,Ambattan,111317,tam,Tamil,5,5,Hinduism,0.083,,Y,,,,,Y,Y,79.480907689918,10.751281689808
18392CH,CH,China,18392,"Amdo, Hbrogpa","Amdo, Hbrogpa","Hbrogpa Amdo",743000,ASI,Asia,3,"Asia, Northeast",Y,23,"Tibetan-Himalayan Peoples",304,Tibetan,743000,1,Y,Y,15,300272,Amdo,113985,adx,"Tibetan, Amdo",4,2,Buddhism,0.050,0.050,Y,,,,,Y,Y,100.24247112794,34.479699358339
18393CH,CH,China,18393,"Amdo, Rongba","Amdo, Rongba","Rongba Amdo",162000,ASI,Asia,3,"Asia, Northeast",Y,23,"Tibetan-Himalayan Peoples",304,Tibetan,162000,1,Y,Y,3,300272,Amdo,113986,adx,"Tibetan, Amdo",4,2,Buddhism,0.010,0.010,Y,,,,,Y,Y,100.49083217385,34.524750317192
18394CH,CH,China,18394,"Amdo, Rongmahbrogpa","Amdo, Rongmahbrogpa","Rongmahbrogpa Amdo",187000,ASI,Asia,3,"Asia, Northeast",Y,23,"Tibetan-Himalayan Peoples",304,Tibetan,187000,1,Y,Y,4,300272,Amdo,113987,adx,"Tibetan, Amdo",4,2,Buddhism,0.050,0.050,Y,"CC BY-NC 2.0",https://creativecommons.org/licenses/by-nc/2.0/,,,Y,Y,100.4886813641,34.523345103952
18395CH,CH,China,18395,"Amdo, Rtahu","Amdo, Rtahu","Rtahu Amdo",100000,ASI,Asia,3,"Asia, Northeast",Y,23,"Tibetan-Himalayan Peoples",304,Tibetan,100000,1,Y,Y,2,300272,Amdo,113988,adx,"Tibetan, Amdo",4,2,Buddhism,0.000,0.000,Y,,,,,Y,Y,100.4864585404,34.520750465386
15840ET,ET,Ethiopia,15840,"Amhara, Wollo","Amhara, Wollo","Wollo Amhara",6492000,AFR,Africa,7,"Africa, East and Southern",Y,13,"Horn of Africa Peoples",164,Ethio-Semitic,6492000,1,Y,N,130,306363,Oromo,110647,amh,Amharic,5,6,Islam,2.900,0.199,Y,,,,,Y,Y,39.633047951202,11.141573216031
10295CH,CH,China,10295,Ami,Ami,Ami,2000,ASI,Asia,3,"Asia, Northeast",Y,11,"East Asian Peoples",298,"Taiwan Indigenous",216000,1,Y,Y,1,300280,"Ami (Amis)",100294,ami,Amis,5,4,"Ethnic Religions",0.000,0.000,Y,"CC BY 2.0",https://creativecommons.org/licenses/by/2.0/,,,N,Y,117.02325059474,23.981006336173
16197IN,IN,India,16197,"Amma Kodaga","Amma Kodaga","Amma Kodaga",2400,ASI,Asia,4,"Asia, South",Y,21,"South Asian Peoples",442,"South Asia Hindu - other",2400,1,Y,Y,1,300281,"Amma Kodaga",111306,kfa,Kodava,4,5,Hinduism,0.000,0.000,Y,,,,,N,Y,76.014644661517,12.933109904457
10300ID,ID,Indonesia,10300,Ampanang,Ampanang,Ampanang,40000,ASI,Asia,2,"Asia, Southeast",Y,17,"Malay Peoples",133,"Barito of Kalimantan",40000,1,Y,Y,1,300285,Ampanang,100303,apg,Ampanang,1,4,"Ethnic Religions",0.000,0.000,Y,,,,,N,N,116.38998,-0.78618
10301SU,SU,Sudan,10301,Amri,Amri,Amri,94000,AFR,Africa,7,"Africa, East and Southern",Y,10,"Arab World",117,"Arab, Sudan",94000,1,Y,Y,2,300286,Amri,100304,apd,"Arabic, Sudanese",4,6,Islam,0.000,0.000,Y,,,,,Y,Y,29.345916441702,15.698534846861
20467RS,RS,Russia,20467,Andalal,Andalal,Andalal,62000,ASI,Asia,9,"Europe, Eastern and Eurasia",N,12,"Eurasian Peoples",157,Caucasus,62000,1,Y,Y,1,300299,Andalal,116311,ava,Avar,4,6,Islam,0.008,0.008,Y,,,,,Y,Y,46.842505,42.192247
16215IN,IN,India,16215,Andh,Andh,Andh,580000,ASI,Asia,4,"Asia, South",Y,21,"South Asian Peoples",475,"South Asia Tribal - other",580000,1,Y,Y,12,300302,"Andh (Andha)",111326,mar,Marathi,5,5,Hinduism,0.022,,Y,"CC BY-SA 4.0",https://creativecommons.org/licenses/by-sa/4.0/,,,Y,Y,77.904338362512,19.916714306899
10310RS,RS,Russia,10310,Andi,Andi,Andi,31000,ASI,Asia,9,"Europe, Eastern and Eurasia",N,12,"Eurasian Peoples",157,Caucasus,31000,1,Y,Y,1,300305,"Andi (Qwannab)",100328,ani,Andi,3,6,Islam,0.003,0.003,Y,,,,,N,N,46.31578,42.81213
10312ID,ID,Indonesia,10312,"Andio, Masama",Andio,"Masama Andio",300,ASI,Asia,2,"Asia, Southeast",Y,17,"Malay Peoples",198,"Kaili-Tomini of Sulawesi",300,1,Y,Y,1,300307,"Andio (Masama)",100330,bzb,Andio,3,6,Islam,0.000,0.000,Y,,,,,Y,N,123.17591,-0.88263
16217IN,IN,India,16217,Anduran,Anduran,Anduran,2900,ASI,Asia,4,"Asia, South",Y,21,"South Asian Peoples",442,"South Asia Hindu - other",2900,1,Y,Y,1,300310,Anduran,111329,knn,Konkani,5,5,Hinduism,0.000,0.000,Y,,,,,Y,Y,75.522069119522,12.885271230657
10317ID,ID,Indonesia,10317,"Aneuk Jamee","Aneuk Jamee","Aneuk Jamee",76000,ASI,Asia,2,"Asia, Southeast",Y,17,"Malay Peoples",101,"Aceh of Sumatra",76000,1,Y,Y,2,300313,"Aneuk Jamee",100341,min,Minangkabau,5,6,Islam,0.100,0.006,Y,,,,,Y,Y,97.379944296092,3.0855437526421
16238IN,IN,India,16238,Angarok,Angarok,Angarok,8000,ASI,Asia,4,"Asia, South",Y,21,"South Asian Peoples",442,"South Asia Hindu - other",8000,1,Y,Y,1,300319,Angarok,111359,ben,Bengali,5,5,Hinduism,0.000,0.000,Y,,,,,Y,Y,86.642806868384,23.446625354292
19373CH,CH,China,19373,Angku,Angku,Angku,8100,ASI,Asia,3,"Asia, Northeast",Y,20,"Southeast Asian Peoples",239,Mon-Khmer,8100,1,Y,Y,1,300325,Angku,114915,kkn,"Kon Keu",1,2,Buddhism,0.000,0.000,Y,,,,,N,Y,100.78153358021,21.872035494143
22392SU,SU,Sudan,22392,Angolo,Angolo,Angolo,48000,AFR,Africa,7,"Africa, East and Southern",Y,22,"Sub-Saharan Peoples",248,"Nuba Mountains",48000,1,Y,Y,1,0,,119390,apd,"Arabic, Sudanese",4,6,Islam,0.000,0.000,Y,,,,,Y,Y,30.2,10.2
18396CH,CH,China,18396,Ani,Ani,Ani,10000,ASI,Asia,3,"Asia, Northeast",Y,23,"Tibetan-Himalayan Peoples",317,"Tibeto-Burman, other",10000,1,Y,Y,1,300334,Ani,113990,ypn,"Phowa, Ani",1,4,"Ethnic Religions",0.000,0.000,Y,,,,,N,N,103.72997,24.5198
10706BN,BN,Benin,10706,Anii,Anii,Anii,52000,AFR,Africa,8,"Africa, West and Central",Y,22,"Sub-Saharan Peoples",181,Guinean,72000,1,Y,N,1,300930,"Basila (Anii)",101101,blo,Anii,3,6,Islam,2.000,1.000,Y,,,,,N,Y,1.67144,9.21671
10706TO,TO,Togo,10706,Anii,Anii,Anii,20000,AFR,Africa,8,"Africa, West and Central",N,22,"Sub-Saharan Peoples",181,Guinean,72000,1,Y,N,1,300930,"Basila (Anii)",101101,blo,Anii,3,6,Islam,1.200,1.100,Y,,,,,N,Y,1.5646,9.01787
16221AF,AF,Afghanistan,16221,Ansari,Ansari,Ansari,2600,ASI,Asia,5,"Asia, Central",Y,21,"South Asian Peoples",452,"South Asia Muslim - Ansari",17669700,1,Y,Y,1,300342,Ansari,111334,urd,Urdu,5,6,Islam,0.000,0.000,N,"CC BY 3.0",https://creativecommons.org/licenses/by/3.0/,,,Y,Y,69.31980000037,34.547769999985
16221BG,BG,Bangladesh,16221,Ansari,Ansari,Ansari,16000,ASI,Asia,4,"Asia, South",Y,21,"South Asian Peoples",452,"South Asia Muslim - Ansari",17669700,1,Y,Y,1,300342,Ansari,111334,ben,Bengali,5,6,Islam,0.000,0.000,Y,"CC BY 3.0",https://creativecommons.org/licenses/by/3.0/,,,Y,Y,89.630343530055,24.626835868644
16221CE,CE,"Sri Lanka",16221,Ansari,Ansari,Ansari,1100,ASI,Asia,4,"Asia, South",Y,21,"South Asian Peoples",452,"South Asia Muslim - Ansari",17669700,1,Y,Y,1,300342,Ansari,111334,urd,Urdu,5,6,Islam,0.000,0.000,Y,"CC BY 3.0",https://creativecommons.org/licenses/by/3.0/,,,Y,Y,81.555452758706,7.2255697371109
16221IN,IN,India,16221,Ansari,Ansari,Ansari,12675000,ASI,Asia,4,"Asia, South",Y,21,"South Asian Peoples",452,"South Asia Muslim - Ansari",17669700,1,Y,Y,254,300342,Ansari,111334,urd,Urdu,5,6,Islam,0.000,,Y,"CC BY 3.0",https://creativecommons.org/licenses/by/3.0/,,,Y,Y,78.910673158908,29.672621871108
16221NP,NP,Nepal,16221,Ansari,Ansari,Ansari,51000,ASI,Asia,4,"Asia, South",Y,21,"South Asian Peoples",452,"South Asia Muslim - Ansari",17669700,1,Y,Y,1,300342,Ansari,111334,urd,Urdu,5,6,Islam,0.000,0.000,Y,"CC BY 3.0",https://creativecommons.org/licenses/by/3.0/,,,Y,Y,81.844586528332,28.554521882875
16221PK,PK,Pakistan,16221,Ansari,Ansari,Ansari,4924000,ASI,Asia,4,"Asia, South",Y,21,"South Asian Peoples",452,"South Asia Muslim - Ansari",17669700,1,Y,Y,98,300342,Ansari,111334,pnb,"Punjabi, Western",4,6,Islam,0.000,0.000,Y,"CC BY 3.0",https://creativecommons.org/licenses/by/3.0/,,,Y,Y,74.37745093698,31.381063610137
10342MA,MA,Madagascar,10342,Antankarana,Antankarana,Antankarana,216000,AFR,Africa,7,"Africa, East and Southern",N,17,"Malay Peoples",214,Malagasy,216000,1,Y,N,4,300352,Antankarana,100378,xmv,"Malagasy, Antankarana",3,6,Islam,5.000,0.740,Y,,,,,Y,Y,49.29805,-13.35245
22459SU,SU,Sudan,22459,Antiti,Antiti,Antiti,17000,AFR,Africa,7,"Africa, East and Southern",Y,22,"Sub-Saharan Peoples",248,"Nuba Mountains",17000,1,Y,Y,1,,,119450,apd,"Arabic, Sudanese",4,6,Islam,0.000,0.000,Y,,,,,Y,Y,29.32,11.77
20468RS,RS,Russia,20468,Antsukh,Antsukh,Antsukh,51000,ASI,Asia,9,"Europe, Eastern and Eurasia",N,12,"Eurasian Peoples",157,Caucasus,51000,1,Y,Y,1,300359,Antsukh,116312,ava,Avar,4,6,Islam,0.001,0.001,Y,"CC BY-NC-ND 2.0",https://creativecommons.org/licenses/by-nc-nd/2.0/,,,Y,Y,46.34009,42.190423
10355GH,GH,Ghana,10355,Anufo,Anufo,Anufo,122000,AFR,Africa,8,"Africa, West and Central",N,22,"Sub-Saharan Peoples",181,Guinean,246000,1,Y,N,2,300362,"Anufo (Chokossi)",100396,cko,Anufo,4,4,"Ethnic Religions",0.720,0.650,Y,,,,,Y,Y,0.28419,10.16789
10355TO,TO,Togo,10355,Anufo,Anufo,Anufo,96000,AFR,Africa,8,"Africa, West and Central",N,22,"Sub-Saharan Peoples",181,Guinean,246000,1,Y,N,2,300362,"Anufo (Chokossi)",100396,cko,Anufo,4,6,Islam,2.300,1.100,Y,,,,,Y,Y,0.55967,10.36111
16214IN,IN,India,16214,Anuppan,Anuppan,Anuppan,1300,ASI,Asia,4,"Asia, South",Y,21,"South Asian Peoples",442,"South Asia Hindu - other",1300,1,Y,Y,1,300365,Anuppan,111325,kan,Kannada,5,5,Hinduism,0.000,0.000,Y,,,,,Y,Y,78.672187487945,11.080761763889
18397CH,CH,China,18397,"Ao Biao","Ao Biao","Ao Biao",17000,ASI,Asia,3,"Asia, Northeast",Y,20,"Southeast Asian Peoples",319,Yao-Mien,17000,1,Y,N,1,300375,"Ao Biao",113991,bje,"Biao-Jiao Mien",1,4,"Ethnic Religions",0.400,0.400,Y,,,,,N,Y,111.35343926455,25.539835774356
18398CH,CH,China,18398,Aoka,Aoka,Aoka,299000,ASI,Asia,3,"Asia, Northeast",Y,11,"East Asian Peoples",161,Chinese,299000,1,Y,N,6,300378,Aoka,113992,hsn,"Chinese, Xiang",3,4,"Ethnic Religions",1.000,0.700,Y,,,,,Y,Y,110.30064700016,26.335633999909
16226IN,IN,India,16226,Apapanthi,Apapanthi,Apapanthi,33000,ASI,Asia,4,"Asia, South",Y,21,"South Asian Peoples",442,"South Asia Hindu - other",33000,1,Y,Y,1,300384,Apapanthi,111340,hin,Hindi,5,5,Hinduism,0.000,0.000,Y,,,,,Y,Y,81.132959738817,27.807608120557
18400CH,CH,China,18400,Apu,Apu,Apu,3300,ASI,Asia,3,"Asia, Northeast",Y,23,"Tibetan-Himalayan Peoples",317,"Tibeto-Burman, other",3300,1,Y,Y,1,300390,Apu,113994,nos,"Nisu, Eastern",1,4,"Ethnic Religions",0.000,0.000,Y,,,,,N,Y,103.49539890304,22.780106854648
10375BU,BU,Bulgaria,10375,Arab,Arab,Arab,11000,EUR,Europe,9,"Europe, Eastern and Eurasia",N,10,"Arab World",111,"Arab, Arabian",755300,1,Y,N,1,300393,Arab,100425,apc,"Arabic, Levantine",3,6,Islam,5.000,0.300,N,,,,,N,Y,23.314,42.663717
10375BY,BY,Burundi,10375,Arab,Arab,Arab,3700,AFR,Africa,7,"Africa, East and Southern",N,10,"Arab World",111,"Arab, Arabian",755300,1,Y,Y,1,300393,Arab,100425,apc,"Arabic, Levantine",3,6,Islam,0.000,0.000,N,,,,,N,Y,29.377888394734,-3.3875202962247
10375CE,CE,"Sri Lanka",10375,Arab,Arab,Arab,5400,ASI,Asia,4,"Asia, South",Y,10,"Arab World",111,"Arab, Arabian",755300,1,Y,Y,1,300393,Arab,100425,acm,"Arabic, Mesopotamian",4,6,Islam,0.000,0.000,N,,,,,Y,Y,81.55527,7.22516
10375CG,CG,"Congo, Democratic Republic of",10375,Arab,Arab,Arab,31000,AFR,Africa,8,"Africa, West and Central",N,10,"Arab World",111,"Arab, Arabian",755300,1,Y,N,1,300393,Arab,100425,apc,"Arabic, Levantine",3,6,Islam,2.000,0.020,N,,,,,N,Y,15.311802205307,-4.3698652993441
10375CN,CN,Comoros,10375,Arab,Arab,Arab,800,AFR,Africa,7,"Africa, East and Southern",N,10,"Arab World",111,"Arab, Arabian",755300,1,Y,Y,1,300393,Arab,100425,swb,"Comorian, Maore",4,6,Islam,0.000,0.000,N,,,,,Y,Y,43.378,-11.794
10375GB,GB,Gabon,10375,Arab,Arab,Arab,5700,AFR,Africa,8,"Africa, West and Central",N,10,"Arab World",111,"Arab, Arabian",755300,1,Y,N,1,300393,Arab,100425,apc,"Arabic, Levantine",3,6,Islam,5.000,0.500,N,,,,,N,Y,9.458259,0.39503
10375GH,GH,Ghana,10375,Arab,Arab,Arab,3300,AFR,Africa,8,"Africa, West and Central",N,10,"Arab World",111,"Arab, Arabian",755300,1,Y,N,1,300393,Arab,100425,apc,"Arabic, Levantine",3,6,Islam,5.000,0.500,N,,,,,N,Y,-0.2326939198885,5.5994619299241
10375IN,IN,India,10375,Arab,Arab,Arab,2900,ASI,Asia,4,"Asia, South",Y,10,"Arab World",111,"Arab, Arabian",755300,1,Y,Y,1,300393,Arab,100425,acm,"Arabic, Mesopotamian",4,6,Islam,0.000,0.000,N,,,,,Y,Y,75.086413977713,13.453638096533
10375MK,MK,"North Macedonia",10375,Arab,Arab,Arab,6300,EUR,Europe,9,"Europe, Eastern and Eurasia",N,10,"Arab World",111,"Arab, Arabian",755300,1,Y,N,1,300393,Arab,100425,apc,"Arabic, Levantine",3,6,Islam,5.000,0.500,N,,,,,N,Y,21.422645,41.999505
10375MP,MP,Mauritius,10375,Arab,Arab,Arab,800,AFR,Africa,7,"Africa, East and Southern",N,10,"Arab World",111,"Arab, Arabian",755300,1,Y,N,1,300393,Arab,100425,apc,"Arabic, Levantine",3,6,Islam,5.000,0.200,Y,,,,,N,Y,57.515981,-20.161425
10375MY,MY,Malaysia,10375,Arab,Arab,Arab,16000,ASI,Asia,2,"Asia, Southeast",Y,10,"Arab World",111,"Arab, Arabian",755300,1,Y,N,1,300393,Arab,100425,apc,"Arabic, Levantine",3,6,Islam,0.200,0.000,N,,,,,N,Y,101.73526414333,3.1596801865913
10375PK,PK,Pakistan,10375,Arab,Arab,Arab,6100,ASI,Asia,4,"Asia, South",Y,10,"Arab World",111,"Arab, Arabian",755300,1,Y,Y,1,300393,Arab,100425,acm,"Arabic, Mesopotamian",4,6,Islam,0.000,0.000,N,,,,,Y,Y,71.661009608307,29.390496309757
10375RP,RP,Philippines,10375,Arab,Arab,Arab,35000,ASI,Asia,2,"Asia, Southeast",N,10,"Arab World",111,"Arab, Arabian",755300,1,Y,N,1,300393,Arab,100425,acm,"Arabic, Mesopotamian",4,6,Islam,2.000,0.200,N,,,,,Y,Y,120.988322,14.58104
10375RW,RW,Rwanda,10375,Arab,Arab,Arab,2900,AFR,Africa,7,"Africa, East and Southern",N,10,"Arab World",111,"Arab, Arabian",755300,1,Y,N,1,300393,Arab,100425,apc,"Arabic, Levantine",3,6,Islam,2.000,0.300,N,,,,,N,Y,30.081952025865,-1.9527665516351
10375SO,SO,Somalia,10375,Arab,Arab,Arab,7200,AFR,Africa,7,"Africa, East and Southern",Y,10,"Arab World",111,"Arab, Arabian",755300,1,Y,N,1,300393,Arab,100425,apc,"Arabic, Levantine",3,6,Islam,3.000,0.500,N,,,,,N,Y,44.82606,2.56411
10375TZ,TZ,Tanzania,10375,Arab,Arab,Arab,296000,AFR,Africa,7,"Africa, East and Southern",N,10,"Arab World",111,"Arab, Arabian",755300,1,Y,N,6,300393,Arab,100425,swh,Swahili,5,6,Islam,5.000,0.600,N,,,,,Y,Y,39.218267035695,-6.1794795916099
10376CA,CA,Canada,10376,"Arab, Arabic Gulf Spoken","Arab, Arabic Gulf Spoken","Gulf-spoken Arab",80000,NAR,"North America",12,"America, North and Caribbean",N,10,"Arab World",111,"Arab, Arabian",7157400,1,Y,N,2,300401,"Arab, Gulf",100427,afb,"Arabic, Gulf",3,6,Islam,1.900,0.800,N,,,,,Y,Y,-79.353124,43.684403
10376EG,EG,Egypt,10376,"Arab, Arabic Gulf Spoken","Arab, Arabic Gulf Spoken","Gulf-spoken Arab",1867000,AFR,Africa,6,"Africa, North and Middle East",Y,10,"Arab World",111,"Arab, Arabian",7157400,1,Y,N,37,300401,"Arab, Gulf",100427,afb,"Arabic, Gulf",3,6,Islam,1.100,0.000,N,,,,,Y,Y,34.071309,28.685728
10376IR,IR,Iran,10376,"Arab, Arabic Gulf Spoken","Arab, Arabic Gulf Spoken","Gulf-spoken Arab",294000,ASI,Asia,5,"Asia, Central",Y,10,"Arab World",111,"Arab, Arabian",7157400,1,Y,N,6,300401,"Arab, Gulf",100427,afb,"Arabic, Gulf",3,6,Islam,1.200,0.100,N,,,,,Y,Y,54.777759999924,26.783180000057
10376IZ,IZ,Iraq,10376,"Arab, Arabic Gulf Spoken","Arab, Arabic Gulf Spoken","Gulf-spoken Arab",88000,ASI,Asia,6,"Africa, North and Middle East",Y,10,"Arab World",111,"Arab, Arabian",7157400,1,Y,N,2,300401,"Arab, Gulf",100427,afb,"Arabic, Gulf",3,6,Islam,0.900,0.100,N,,,,,Y,Y,47.487488,30.633186
10376KU,KU,Kuwait,10376,"Arab, Arabic Gulf Spoken","Arab, Arabic Gulf Spoken","Gulf-spoken Arab",1358000,ASI,Asia,6,"Africa, North and Middle East",Y,10,"Arab World",111,"Arab, Arabian",7157400,1,Y,N,27,300401,"Arab, Gulf",100427,afb,"Arabic, Gulf",3,6,Islam,2.000,0.532,Y,,,,,Y,Y,47.889020999719,29.307876999924
10376MU,MU,Oman,10376,"Arab, Arabic Gulf Spoken","Arab, Arabic Gulf Spoken","Gulf-spoken Arab",744000,ASI,Asia,6,"Africa, North and Middle East",Y,10,"Arab World",111,"Arab, Arabian",7157400,1,Y,N,15,300401,"Arab, Gulf",100427,afb,"Arabic, Gulf",3,6,Islam,0.350,0.300,N,,,,,Y,Y,56.44225,20.90686
10376QA,QA,Qatar,10376,"Arab, Arabic Gulf Spoken","Arab, Arabic Gulf Spoken","Gulf-spoken Arab",532000,ASI,Asia,6,"Africa, North and Middle East",Y,10,"Arab World",111,"Arab, Arabian",7157400,1,Y,N,11,300401,"Arab, Gulf",100427,afb,"Arabic, Gulf",3,6,Islam,0.500,0.081,Y,,,,,Y,Y,51.403912191095,25.312348339105
10376SA,SA,"Saudi Arabia",10376,"Arab, Arabic Gulf Spoken","Arab, Arabic Gulf Spoken","Gulf-spoken Arab",1055000,ASI,Asia,6,"Africa, North and Middle East",Y,10,"Arab World",111,"Arab, Arabian",7157400,1,Y,N,21,300401,"Arab, Gulf",100427,afb,"Arabic, Gulf",3,6,Islam,0.200,0.100,Y,,,,,Y,Y,55.18249,21.7353
10376US,US,"United States",10376,"Arab, Arabic Gulf Spoken","Arab, Arabic Gulf Spoken","Gulf-spoken Arab",21000,NAR,"North America",12,"America, North and Caribbean",N,10,"Arab World",111,"Arab, Arabian",7157400,1,Y,N,1,300401,"Arab, Gulf",100427,afb,"Arabic, Gulf",3,6,Islam,4.000,2.000,N,,,,,Y,Y,-118.316142,34.09245
10376YM,YM,Yemen,10376,"Arab, Arabic Gulf Spoken","Arab, Arabic Gulf Spoken","Gulf-spoken Arab",18000,ASI,Asia,6,"Africa, North and Middle East",Y,10,"Arab World",111,"Arab, Arabian",7157400,1,Y,N,1,300401,"Arab, Gulf",100427,afb,"Arabic, Gulf",3,6,Islam,0.600,0.200,N,,,,,Y,Y,49.60438,17.80957
10572BA,BA,Bahrain,10572,"Arab, Bahraini","Arab, Bahraini","Bahraini Arab",770000,ASI,Asia,6,"Africa, North and Middle East",Y,10,"Arab World",111,"Arab, Arabian",787000,1,Y,N,15,300395,"Arab, Bahraini",100772,abv,"Arabic, Baharna",2,6,Islam,3.400,0.900,Y,"CC BY-SA 2.0",https://creativecommons.org/licenses/by-sa/2.0/,,,N,Y,50.5695,26.00272
10572MU,MU,Oman,10572,"Arab, Bahraini","Arab, Bahraini","Bahraini Arab",17000,ASI,Asia,6,"Africa, North and Middle East",Y,10,"Arab World",111,"Arab, Arabian",787000,1,Y,N,1,300395,"Arab, Bahraini",100772,abv,"Arabic, Baharna",2,6,Islam,3.000,1.000,N,"CC BY-SA 2.0",https://creativecommons.org/licenses/by-sa/2.0/,,,N,Y,57.11082,23.29746
10758JO,JO,Jordan,10758,"Arab, Bedouin",Bedouin,"Bedouin Arab",1535000,ASI,Asia,6,"Africa, North and Middle East",Y,10,"Arab World",136,"Bedouin, Arabian",2937000,1,Y,Y,31,300396,"Bedouin, Arabian",101193,avl,"Arabic, Eastern Egyptian Bedawi",3,6,Islam,0.010,0.010,Y,,,,,Y,Y,36.827115870301,31.877436374289
10758SA,SA,"Saudi Arabia",10758,"Arab, Bedouin",Bedouin,"Bedouin Arab",1402000,ASI,Asia,6,"Africa, North and Middle East",Y,10,"Arab World",136,"Bedouin, Arabian",2937000,1,Y,Y,28,300396,"Bedouin, Arabian",101193,ars,"Arabic, Najdi",3,6,Islam,0.090,0.080,Y,,,,,N,Y,46.661276396289,24.693587117252
11454LY,LY,Libya,11454,"Arab, Cyrenaican","Arab, Cyrenaican","Cyrenaican Arab",1460000,AFR,Africa,6,"Africa, North and Middle East",Y,10,"Arab World",114,"Arab, Libyan",1460000,1,Y,Y,29,300398,"Arab, Cyrenaican",102342,ayl,"Arabic, Libyan",0,6,Islam,0.100,0.029,Y,"CC BY-SA 3.0",https://creativecommons.org/licenses/by-sa/3.0/,,,Y,Y,20.828170217082,32.497681626806
11546MU,MU,Oman,11546,"Arab, Dhofari","Arab, Dhofari","Dhofari Arab",118000,ASI,Asia,6,"Africa, North and Middle East",Y,10,"Arab World",111,"Arab, Arabian",118000,1,Y,N,2,302074,Dhofari,102582,adf,"Arabic, Dhofari",2,6,Islam,0.450,0.400,Y,,,,,N,Y,54.51684,17.07256
11722YM,YM,Yemen,11722,"Arab, Egyptian","Arab, Egyptian","Egyptian Arab",18000,ASI,Asia,6,"Africa, North and Middle East",Y,10,"Arab World",163,Egyptian,76839000,1,Y,N,1,300399,"Arab, Egyptian",102879,arz,"Arabic, Egyptian",5,6,Islam,2.000,1.000,N,"CC BY-NC 2.0",https://creativecommons.org/licenses/by-nc/2.0/,,,Y,Y,44.22999269051,15.328274828221
10376AE,AE,"United Arab Emirates",10376,"Arab, Emirati","Arab, Arabic Gulf Spoken","Emirati Arab",1099000,ASI,Asia,6,"Africa, North and Middle East",Y,10,"Arab World",111,"Arab, Arabian",7157400,1,Y,N,22,300401,"Arab, Gulf",100427,afb,"Arabic, Gulf",3,6,Islam,0.400,0.300,Y,,,,,Y,Y,55.427463504737,25.363460735624
19204AS,AS,Australia,19204,"Arab, general","Arab, general",Arab,51000,AUS,Australia,1,"Australia and Pacific",N,10,"Arab World",324,"Arab World, general",2252400,1,Y,N,1,300400,"Arab, generic",115690,acm,"Arabic, Mesopotamian",4,6,Islam,0.500,0.300,N,,,,,Y,Y,151.2078,-33.8678
19204HU,HU,Hungary,19204,"Arab, general","Arab, general",Arab,5400,EUR,Europe,9,"Europe, Eastern and Eurasia",N,10,"Arab World",324,"Arab World, general",2252400,1,Y,N,1,300400,"Arab, generic",115690,apc,"Arabic, Levantine",3,6,Islam,4.000,0.500,N,,,,,N,Y,19.127356,47.511695
19204ID,ID,Indonesia,19204,"Arab, general","Arab, general",Arab,284000,ASI,Asia,2,"Asia, Southeast",Y,10,"Arab World",324,"Arab World, general",2252400,1,Y,N,6,300400,"Arab, generic",115690,apc,"Arabic, Levantine",3,6,Islam,4.000,0.100,N,,,,,N,Y,106.737203,-6.153384
19204IT,IT,Italy,19204,"Arab, general","Arab, general",Arab,1206000,EUR,Europe,10,"Europe, Western",N,10,"Arab World",324,"Arab World, general",2252400,1,Y,N,24,300400,"Arab, generic",115690,ayl,"Arabic, Libyan",0,6,Islam,0.300,0.059,N,,,,,Y,Y,12.510140065911,41.883986405448
12029KE,KE,Kenya,12029,"Arab, Hadrami","Arab, Hadrami","Hadrami Arab",13000,AFR,Africa,7,"Africa, East and Southern",N,10,"Arab World",118,"Arab, Yemeni",2213000,1,Y,Y,1,300426,"Arab, Yemeni",103630,ayh,"Arabic, Hadrami",3,6,Islam,0.000,0.000,N,"CC BY-SA 2.0",https://creativecommons.org/licenses/by-sa/2.0/,,,N,Y,36.817477,-1.299822
12029YM,YM,Yemen,12029,"Arab, Hadrami","Arab, Hadrami","Hadrami Arab",2200000,ASI,Asia,6,"Africa, North and Middle East",Y,10,"Arab World",118,"Arab, Yemeni",2213000,1,Y,Y,44,300426,"Arab, Yemeni",103630,ayh,"Arabic, Hadrami",3,6,Islam,0.000,0.000,Y,"CC BY-SA 2.0",https://creativecommons.org/licenses/by-sa/2.0/,,,N,Y,48.652409999622,15.446759999674
12246IR,IR,Iran,12246,"Arab, Iranian","Arab, Iranian","Iranian Arab",1531000,ASI,Asia,5,"Asia, Central",Y,10,"Arab World",111,"Arab, Arabian",1531000,1,Y,N,31,300403,"Arab, Iranian",104053,acm,"Arabic, Mesopotamian",4,6,Islam,0.300,0.286,Y,"CC BY 2.0",https://creativecommons.org/licenses/by/2.0/,,,Y,Y,48.9011,30.13785
12247AE,AE,"United Arab Emirates",12247,"Arab, Iraqi","Arab, Iraqi","Iraqi Arab",49000,ASI,Asia,6,"Africa, North and Middle East",Y,10,"Arab World",113,"Arab, Levant",21538900,1,Y,N,1,300404,"Arab, Iraqi",104056,acm,"Arabic, Mesopotamian",4,6,Islam,0.800,0.200,N,"CC BY-SA 3.0",https://creativecommons.org/licenses/by-sa/3.0/,,,Y,Y,55.287296169782,25.25585401635
12247AG,AG,Algeria,12247,"Arab, Iraqi","Arab, Iraqi","Iraqi Arab",4800,AFR,Africa,6,"Africa, North and Middle East",Y,10,"Arab World",113,"Arab, Levant",21538900,1,Y,N,1,300404,"Arab, Iraqi",104056,acm,"Arabic, Mesopotamian",4,6,Islam,0.699,0.699,N,"CC BY-SA 3.0",https://creativecommons.org/licenses/by-sa/3.0/,,,Y,Y,1.2837699999855,28.489469999841
12247AS,AS,Australia,12247,"Arab, Iraqi","Arab, Iraqi","Iraqi Arab",72000,AUS,Australia,1,"Australia and Pacific",N,10,"Arab World",113,"Arab, Levant",21538900,1,Y,N,1,300404,"Arab, Iraqi",104056,acm,"Arabic, Mesopotamian",4,6,Islam,4.000,1.000,N,"CC BY-SA 3.0",https://creativecommons.org/licenses/by-sa/3.0/,,,Y,Y,144.886962,-37.812986
12247BE,BE,Belgium,12247,"Arab, Iraqi","Arab, Iraqi","Iraqi Arab",21000,EUR,Europe,10,"Europe, Western",N,10,"Arab World",113,"Arab, Levant",21538900,1,Y,N,1,300404,"Arab, Iraqi",104056,acm,"Arabic, Mesopotamian",4,6,Islam,2.000,0.300,N,"CC BY-SA 3.0",https://creativecommons.org/licenses/by-sa/3.0/,,,Y,Y,4.353942,50.853378
12247CY,CY,Cyprus,12247,"Arab, Iraqi","Arab, Iraqi","Iraqi Arab",2100,EUR,Europe,10,"Europe, Western",N,10,"Arab World",113,"Arab, Levant",21538900,1,Y,N,1,300404,"Arab, Iraqi",104056,acm,"Arabic, Mesopotamian",4,6,Islam,0.500,0.200,N,"CC BY-SA 3.0",https://creativecommons.org/licenses/by-sa/3.0/,,,Y,Y,33.030118,34.698253
12247DA,DA,Denmark,12247,"Arab, Iraqi","Arab, Iraqi","Iraqi Arab",35000,EUR,Europe,10,"Europe, Western",N,10,"Arab World",113,"Arab, Levant",21538900,1,Y,N,1,300404,"Arab, Iraqi",104056,acm,"Arabic, Mesopotamian",4,6,Islam,1.000,0.200,N,"CC BY-SA 3.0",https://creativecommons.org/licenses/by-sa/3.0/,,,Y,Y,12.483879,55.624312
12247FI,FI,Finland,12247,"Arab, Iraqi","Arab, Iraqi","Iraqi Arab",16000,EUR,Europe,10,"Europe, Western",N,10,"Arab World",113,"Arab, Levant",21538900,1,Y,N,1,300404,"Arab, Iraqi",104056,acm,"Arabic, Mesopotamian",4,6,Islam,3.000,0.200,N,"CC BY-SA 3.0",https://creativecommons.org/licenses/by-sa/3.0/,,,Y,Y,25.027606,60.291008
12247FR,FR,France,12247,"Arab, Iraqi","Arab, Iraqi","Iraqi Arab",32000,EUR,Europe,10,"Europe, Western",N,10,"Arab World",113,"Arab, Levant",21538900,1,Y,N,1,300404,"Arab, Iraqi",104056,acm,"Arabic, Mesopotamian",4,6,Islam,2.000,0.300,N,"CC BY-SA 3.0",https://creativecommons.org/licenses/by-sa/3.0/,,,Y,Y,1.857593,50.949619
12247GM,GM,Germany,12247,"Arab, Iraqi","Arab, Iraqi","Iraqi Arab",308000,EUR,Europe,10,"Europe, Western",N,10,"Arab World",113,"Arab, Levant",21538900,1,Y,N,6,300404,"Arab, Iraqi",104056,acm,"Arabic, Mesopotamian",4,6,Islam,1.000,0.300,N,"CC BY-SA 3.0",https://creativecommons.org/licenses/by-sa/3.0/,,,Y,Y,13.368876,52.539593
12247IT,IT,Italy,12247,"Arab, Iraqi","Arab, Iraqi","Iraqi Arab",2200,EUR,Europe,10,"Europe, Western",N,10,"Arab World",113,"Arab, Levant",21538900,1,Y,N,1,300404,"Arab, Iraqi",104056,acm,"Arabic, Mesopotamian",4,6,Islam,2.000,0.300,N,"CC BY-SA 3.0",https://creativecommons.org/licenses/by-sa/3.0/,,,Y,Y,12.440827,41.895363
12247IZ,IZ,Iraq,12247,"Arab, Iraqi","Arab, Iraqi","Iraqi Arab",20052000,ASI,Asia,6,"Africa, North and Middle East",Y,10,"Arab World",113,"Arab, Levant",21538900,1,Y,N,401,300404,"Arab, Iraqi",104056,acm,"Arabic, Mesopotamian",4,6,Islam,0.500,0.200,Y,"CC BY-SA 3.0",https://creativecommons.org/licenses/by-sa/3.0/,,,Y,Y,44.357945496388,33.296633993264
12247KU,KU,Kuwait,12247,"Arab, Iraqi","Arab, Iraqi","Iraqi Arab",19000,ASI,Asia,6,"Africa, North and Middle East",Y,10,"Arab World",113,"Arab, Levant",21538900,1,Y,N,1,300404,"Arab, Iraqi",104056,acm,"Arabic, Mesopotamian",4,6,Islam,5.000,0.200,N,"CC BY-SA 3.0",https://creativecommons.org/licenses/by-sa/3.0/,,,Y,Y,47.801861000285,29.296408999875
12247LE,LE,Lebanon,12247,"Arab, Iraqi","Arab, Iraqi","Iraqi Arab",21000,ASI,Asia,6,"Africa, North and Middle East",Y,10,"Arab World",113,"Arab, Levant",21538900,1,Y,N,1,300404,"Arab, Iraqi",104056,acm,"Arabic, Mesopotamian",4,6,Islam,1.600,0.200,N,"CC BY-SA 3.0",https://creativecommons.org/licenses/by-sa/3.0/,,,Y,Y,35.509333292098,33.853694404074
12247NL,NL,Netherlands,12247,"Arab, Iraqi","Arab, Iraqi","Iraqi Arab",68000,EUR,Europe,10,"Europe, Western",N,10,"Arab World",113,"Arab, Levant",21538900,1,Y,N,1,300404,"Arab, Iraqi",104056,acm,"Arabic, Mesopotamian",4,6,Islam,1.600,0.200,N,"CC BY-SA 3.0",https://creativecommons.org/licenses/by-sa/3.0/,,,Y,Y,4.881726,52.359881
12247NZ,NZ,"New Zealand",12247,"Arab, Iraqi","Arab, Iraqi","Iraqi Arab",2900,SOP,Oceania,1,"Australia and Pacific",N,10,"Arab World",113,"Arab, Levant",21538900,1,Y,N,1,300404,"Arab, Iraqi",104056,acm,"Arabic, Mesopotamian",4,6,Islam,3.000,0.400,N,"CC BY-SA 3.0",https://creativecommons.org/licenses/by-sa/3.0/,,,Y,Y,174.743796,-36.87975
12247SP,SP,Spain,12247,"Arab, Iraqi","Arab, Iraqi","Iraqi Arab",900,EUR,Europe,10,"Europe, Western",N,10,"Arab World",113,"Arab, Levant",21538900,1,Y,N,1,300404,"Arab, Iraqi",104056,acm,"Arabic, Mesopotamian",4,6,Islam,5.000,1.500,N,"CC BY-SA 3.0",https://creativecommons.org/licenses/by-sa/3.0/,,,Y,Y,-3.747971,40.362144
12247SW,SW,Sweden,12247,"Arab, Iraqi","Arab, Iraqi","Iraqi Arab",98000,EUR,Europe,10,"Europe, Western",N,10,"Arab World",113,"Arab, Levant",21538900,1,Y,N,2,300404,"Arab, Iraqi",104056,acm,"Arabic, Mesopotamian",4,6,Islam,1.000,0.300,N,"CC BY-SA 3.0",https://creativecommons.org/licenses/by-sa/3.0/,,,Y,Y,18.03911,59.332161
12247SY,SY,Syria,12247,"Arab, Iraqi","Arab, Iraqi","Iraqi Arab",57000,ASI,Asia,6,"Africa, North and Middle East",Y,10,"Arab World",113,"Arab, Levant",21538900,1,Y,N,1,300404,"Arab, Iraqi",104056,acm,"Arabic, Mesopotamian",4,6,Islam,1.000,0.600,N,"CC BY-SA 3.0",https://creativecommons.org/licenses/by-sa/3.0/,,,Y,Y,37.99,35.97
12247TU,TU,"Türkiye (Turkey)",12247,"Arab, Iraqi","Arab, Iraqi","Iraqi Arab",324000,ASI,Asia,5,"Asia, Central",Y,10,"Arab World",113,"Arab, Levant",21538900,1,Y,N,6,300404,"Arab, Iraqi",104056,acm,"Arabic, Mesopotamian",4,6,Islam,0.500,0.200,N,"CC BY-SA 3.0",https://creativecommons.org/licenses/by-sa/3.0/,,,Y,Y,28.891244,41.031254
12247UK,UK,"United Kingdom",12247,"Arab, Iraqi","Arab, Iraqi","Iraqi Arab",72000,EUR,Europe,10,"Europe, Western",N,10,"Arab World",113,"Arab, Levant",21538900,1,Y,N,1,300404,"Arab, Iraqi",104056,acm,"Arabic, Mesopotamian",4,6,Islam,3.000,0.200,N,"CC BY-SA 3.0",https://creativecommons.org/licenses/by-sa/3.0/,,,Y,Y,-0.154541,51.444235
12247YM,YM,Yemen,12247,"Arab, Iraqi","Arab, Iraqi","Iraqi Arab",44000,ASI,Asia,6,"Africa, North and Middle East",Y,10,"Arab World",113,"Arab, Levant",21538900,1,Y,N,1,300404,"Arab, Iraqi",104056,acm,"Arabic, Mesopotamian",4,6,Islam,2.000,0.200,N,"CC BY-SA 3.0",https://creativecommons.org/licenses/by-sa/3.0/,,,Y,Y,44.027529106083,13.579868232533
12368AE,AE,"United Arab Emirates",12368,"Arab, Jordanian","Arab, Jordanian","Jordanian Arab",25000,ASI,Asia,6,"Africa, North and Middle East",Y,10,"Arab World",113,"Arab, Levant",4930700,1,Y,N,1,300405,"Arab, Jordanian",104301,apc,"Arabic, Levantine",3,6,Islam,2.000,0.300,N,"CC BY 2.0",https://creativecommons.org/licenses/by/2.0/,,,N,Y,55.3353897994,25.284409297151
12368DA,DA,Denmark,12368,"Arab, Jordanian","Arab, Jordanian","Jordanian Arab",1200,EUR,Europe,10,"Europe, Western",N,10,"Arab World",113,"Arab, Levant",4930700,1,Y,N,1,300405,"Arab, Jordanian",104301,apc,"Arabic, Levantine",3,6,Islam,3.000,0.300,N,"CC BY 2.0",https://creativecommons.org/licenses/by/2.0/,,,N,Y,12.438533,55.694962
12368FR,FR,France,12368,"Arab, Jordanian","Arab, Jordanian","Jordanian Arab",5000,EUR,Europe,10,"Europe, Western",N,10,"Arab World",113,"Arab, Levant",4930700,1,Y,N,1,300405,"Arab, Jordanian",104301,apc,"Arabic, Levantine",3,6,Islam,2.500,0.300,N,"CC BY 2.0",https://creativecommons.org/licenses/by/2.0/,,,N,Y,2.253323,48.8352
12368JO,JO,Jordan,12368,"Arab, Jordanian","Arab, Jordanian","Jordanian Arab",4717000,ASI,Asia,6,"Africa, North and Middle East",Y,10,"Arab World",113,"Arab, Levant",4930700,1,Y,N,94,300405,"Arab, Jordanian",104301,apc,"Arabic, Levantine",3,6,Islam,2.500,0.300,Y,"CC BY 2.0",https://creativecommons.org/licenses/by/2.0/,,,N,Y,35.874320824247,31.976771140176
12368KU,KU,Kuwait,12368,"Arab, Jordanian","Arab, Jordanian","Jordanian Arab",33000,ASI,Asia,6,"Africa, North and Middle East",Y,10,"Arab World",113,"Arab, Levant",4930700,1,Y,N,1,300405,"Arab, Jordanian",104301,apc,"Arabic, Levantine",3,6,Islam,5.000,1.000,N,"CC BY 2.0",https://creativecommons.org/licenses/by/2.0/,,,N,Y,47.982669999821,29.282459999629
12368MU,MU,Oman,12368,"Arab, Jordanian","Arab, Jordanian","Jordanian Arab",17000,ASI,Asia,6,"Africa, North and Middle East",Y,10,"Arab World",113,"Arab, Levant",4930700,1,Y,N,1,300405,"Arab, Jordanian",104301,apc,"Arabic, Levantine",3,6,Islam,3.000,0.300,N,"CC BY 2.0",https://creativecommons.org/licenses/by/2.0/,,,N,Y,58.520528057324,23.629342219668
12368SP,SP,Spain,12368,"Arab, Jordanian","Arab, Jordanian","Jordanian Arab",1100,EUR,Europe,10,"Europe, Western",N,10,"Arab World",113,"Arab, Levant",4930700,1,Y,N,1,300405,"Arab, Jordanian",104301,apc,"Arabic, Levantine",3,6,Islam,5.000,1.000,N,"CC BY 2.0",https://creativecommons.org/licenses/by/2.0/,,,N,Y,-3.67362,40.343583
12368SW,SW,Sweden,12368,"Arab, Jordanian","Arab, Jordanian","Jordanian Arab",3400,EUR,Europe,10,"Europe, Western",N,10,"Arab World",113,"Arab, Levant",4930700,1,Y,N,1,300405,"Arab, Jordanian",104301,apc,"Arabic, Levantine",3,6,Islam,2.000,0.300,N,"CC BY 2.0",https://creativecommons.org/licenses/by/2.0/,,,N,Y,18.024735,59.332158
12368SY,SY,Syria,12368,"Arab, Jordanian","Arab, Jordanian","Jordanian Arab",24000,ASI,Asia,6,"Africa, North and Middle East",Y,10,"Arab World",113,"Arab, Levant",4930700,1,Y,N,1,300405,"Arab, Jordanian",104301,apc,"Arabic, Levantine",3,6,Islam,2.000,0.300,N,"CC BY 2.0",https://creativecommons.org/licenses/by/2.0/,,,N,Y,36.108857473094,32.623503320022
12368TU,TU,"Türkiye (Turkey)",12368,"Arab, Jordanian","Arab, Jordanian","Jordanian Arab",24000,ASI,Asia,5,"Asia, Central",Y,10,"Arab World",113,"Arab, Levant",4930700,1,Y,N,1,300405,"Arab, Jordanian",104301,apc,"Arabic, Levantine",3,6,Islam,2.000,0.500,N,"CC BY 2.0",https://creativecommons.org/licenses/by/2.0/,,,N,Y,32.73,39.95
10375KE,KE,Kenya,10375,"Arab, Kenyan",Arab,"Kenyan Arab",16000,AFR,Africa,7,"Africa, East and Southern",N,10,"Arab World",111,"Arab, Arabian",755300,1,Y,N,1,300393,Arab,100425,swh,Swahili,5,6,Islam,1.000,0.200,N,,,,,Y,Y,41.063912111754,-2.1023541384328
13017AE,AE,"United Arab Emirates",13017,"Arab, Lebanese","Arab, Lebanese","Lebanese Arab",26000,ASI,Asia,6,"Africa, North and Middle East",Y,10,"Arab World",113,"Arab, Levant",6326300,1,Y,N,1,300407,"Arab, Lebanese",105688,apc,"Arabic, Levantine",3,6,Islam,5.000,0.500,N,"CC BY 2.0",https://creativecommons.org/licenses/by/2.0/,,,N,Y,55.298825,25.253346
13017MO,MO,Morocco,13017,"Arab, Lebanese","Arab, Lebanese","Lebanese Arab",573000,AFR,Africa,6,"Africa, North and Middle East",Y,10,"Arab World",113,"Arab, Levant",6326300,1,Y,N,11,300407,"Arab, Lebanese",105688,apc,"Arabic, Levantine",3,6,Islam,5.000,2.000,N,"CC BY 2.0",https://creativecommons.org/licenses/by/2.0/,,,N,Y,-7.619944,33.574944
13017QA,QA,Qatar,13017,"Arab, Lebanese","Arab, Lebanese","Lebanese Arab",255000,ASI,Asia,6,"Africa, North and Middle East",Y,10,"Arab World",113,"Arab, Levant",6326300,1,Y,N,5,300407,"Arab, Lebanese",105688,apc,"Arabic, Levantine",3,6,Islam,3.000,0.500,N,"CC BY 2.0",https://creativecommons.org/licenses/by/2.0/,,,N,Y,51.512385635589,25.261722116982
13017TU,TU,"Türkiye (Turkey)",13017,"Arab, Lebanese","Arab, Lebanese","Lebanese Arab",13000,ASI,Asia,5,"Asia, Central",Y,10,"Arab World",113,"Arab, Levant",6326300,1,Y,N,1,300407,"Arab, Lebanese",105688,apc,"Arabic, Levantine",3,6,Islam,0.500,0.100,N,"CC BY 2.0",https://creativecommons.org/licenses/by/2.0/,,,N,Y,36.29257,36.2375
13169AE,AE,"United Arab Emirates",13169,"Arab, Libyan","Arab, Libyan","Libyan Arab",44000,ASI,Asia,6,"Africa, North and Middle East",Y,10,"Arab World",114,"Arab, Libyan",2765600,1,Y,Y,1,300409,"Arab, Libyan",105948,ayl,"Arabic, Libyan",0,6,Islam,0.100,0.100,N,"CC BY-SA 2.0",https://creativecommons.org/licenses/by-sa/2.0/,,,Y,Y,55.4,24.2
13169BE,BE,Belgium,13169,"Arab, Libyan","Arab, Libyan","Libyan Arab",4700,EUR,Europe,10,"Europe, Western",N,10,"Arab World",114,"Arab, Libyan",2765600,1,Y,Y,1,300409,"Arab, Libyan",105948,ayl,"Arabic, Libyan",0,6,Islam,0.100,0.070,N,"CC BY-SA 2.0",https://creativecommons.org/licenses/by-sa/2.0/,,,Y,Y,4.310138,50.91318
13169CA,CA,Canada,13169,"Arab, Libyan","Arab, Libyan","Libyan Arab",5700,NAR,"North America",12,"America, North and Caribbean",N,10,"Arab World",114,"Arab, Libyan",2765600,1,Y,N,1,300409,"Arab, Libyan",105948,ayl,"Arabic, Libyan",0,6,Islam,0.200,0.100,N,"CC BY-SA 2.0",https://creativecommons.org/licenses/by-sa/2.0/,,,Y,Y,-75.6895,45.4225
13169EG,EG,Egypt,13169,"Arab, Libyan","Arab, Libyan","Libyan Arab",474000,AFR,Africa,6,"Africa, North and Middle East",Y,10,"Arab World",114,"Arab, Libyan",2765600,1,Y,N,9,300409,"Arab, Libyan",105948,ayl,"Arabic, Libyan",0,6,Islam,2.500,0.300,N,"CC BY-SA 2.0",https://creativecommons.org/licenses/by-sa/2.0/,,,Y,Y,27.38360000024,31.000760000174
13169IV,IV,"Côte d'Ivoire",13169,"Arab, Libyan","Arab, Libyan","Libyan Arab",20000,AFR,Africa,8,"Africa, West and Central",N,10,"Arab World",114,"Arab, Libyan",2765600,1,Y,N,1,300409,"Arab, Libyan",105948,ayl,"Arabic, Libyan",0,6,Islam,2.600,0.100,N,"CC BY-SA 2.0",https://creativecommons.org/licenses/by-sa/2.0/,,,Y,Y,-5.269003,6.826175
13169LY,LY,Libya,13169,"Arab, Libyan","Arab, Libyan","Libyan Arab",1594000,AFR,Africa,6,"Africa, North and Middle East",Y,10,"Arab World",114,"Arab, Libyan",2765600,1,Y,Y,32,300409,"Arab, Libyan",105948,ayl,"Arabic, Libyan",0,6,Islam,0.100,0.044,Y,"CC BY-SA 2.0",https://creativecommons.org/licenses/by-sa/2.0/,,,Y,Y,13.192788682552,32.867838221057
13169NG,NG,Niger,13169,"Arab, Libyan","Arab, Libyan","Libyan Arab",13000,AFR,Africa,8,"Africa, West and Central",Y,10,"Arab World",114,"Arab, Libyan",2765600,1,Y,N,1,300409,"Arab, Libyan",105948,ayl,"Arabic, Libyan",0,6,Islam,0.500,0.200,N,"CC BY-SA 2.0",https://creativecommons.org/licenses/by-sa/2.0/,,,Y,Y,12.77458,15.33711
13169SW,SW,Sweden,13169,"Arab, Libyan","Arab, Libyan","Libyan Arab",2200,EUR,Europe,10,"Europe, Western",N,10,"Arab World",114,"Arab, Libyan",2765600,1,Y,N,1,300409,"Arab, Libyan",105948,ayl,"Arabic, Libyan",0,6,Islam,1.500,0.300,N,"CC BY-SA 2.0",https://creativecommons.org/licenses/by-sa/2.0/,,,Y,Y,18.099968,59.337992
13169TS,TS,Tunisia,13169,"Arab, Libyan","Arab, Libyan","Libyan Arab",542000,AFR,Africa,6,"Africa, North and Middle East",Y,10,"Arab World",114,"Arab, Libyan",2765600,1,Y,N,11,300409,"Arab, Libyan",105948,ayl,"Arabic, Libyan",0,6,Islam,1.400,0.200,N,"CC BY-SA 2.0",https://creativecommons.org/licenses/by-sa/2.0/,,,Y,Y,11.126382,33.122383
13169TU,TU,"Türkiye (Turkey)",13169,"Arab, Libyan","Arab, Libyan","Libyan Arab",24000,ASI,Asia,5,"Asia, Central",Y,10,"Arab World",114,"Arab, Libyan",2765600,1,Y,N,1,300409,"Arab, Libyan",105948,ayl,"Arabic, Libyan",0,6,Islam,0.200,0.100,N,"CC BY-SA 2.0",https://creativecommons.org/licenses/by-sa/2.0/,,,Y,Y,32.73,39.92
13169UK,UK,"United Kingdom",13169,"Arab, Libyan","Arab, Libyan","Libyan Arab",25000,EUR,Europe,10,"Europe, Western",N,10,"Arab World",114,"Arab, Libyan",2765600,1,Y,N,1,300409,"Arab, Libyan",105948,ayl,"Arabic, Libyan",0,6,Islam,3.000,0.200,N,"CC BY-SA 2.0",https://creativecommons.org/licenses/by-sa/2.0/,,,Y,Y,-0.139529,51.545268
13169US,US,"United States",13169,"Arab, Libyan","Arab, Libyan","Libyan Arab",17000,NAR,"North America",12,"America, North and Caribbean",N,10,"Arab World",114,"Arab, Libyan",2765600,1,Y,N,1,300409,"Arab, Libyan",105948,ayl,"Arabic, Libyan",0,6,Islam,3.000,2.000,N,"CC BY-SA 2.0",https://creativecommons.org/licenses/by-sa/2.0/,,,Y,Y,-73.868919,40.83458
20715IZ,IZ,Iraq,20715,"Arab, Marsh","Arab, Marsh","Marsh Arab",51000,ASI,Asia,6,"Africa, North and Middle East",Y,10,"Arab World",113,"Arab, Levant",51000,1,Y,N,1,300410,"Arab, Marsh",116085,acm,"Arabic, Mesopotamian",4,6,Islam,0.400,0.200,Y,"CC BY 2.0",https://creativecommons.org/licenses/by/2.0/,,,Y,Y,47.053805,31.062404
13787OD,OD,"South Sudan",13787,"Arab, Mongallese","Arab, Mongallese","Mongallese Arab",217000,AFR,Africa,7,"Africa, East and Southern",N,10,"Arab World",117,"Arab, Sudan",217000,1,Y,N,4,300411,"Arab, Mongallese",106754,pga,"Arabic, Juba",3,6,Islam,2.000,0.200,Y,"CC BY 2.0",https://creativecommons.org/licenses/by/2.0/,,,N,Y,28.774,5.654
13819BE,BE,Belgium,13819,"Arab, Moroccan","Arab, Moroccan","Moroccan Arab",343000,EUR,Europe,10,"Europe, Western",N,10,"Arab World",115,"Arab, Maghreb",30298500,1,Y,N,7,300412,"Arab, Moroccan",106804,ary,"Arabic, Moroccan",4,6,Islam,0.110,0.070,N,,,,,Y,Y,4.4628911486076,51.229539739268
13819CA,CA,Canada,13819,"Arab, Moroccan","Arab, Moroccan","Moroccan Arab",107000,NAR,"North America",12,"America, North and Caribbean",N,10,"Arab World",115,"Arab, Maghreb",30298500,1,Y,N,2,300412,"Arab, Moroccan",106804,ary,"Arabic, Moroccan",4,6,Islam,0.130,0.030,N,,,,,Y,Y,-73.631,45.487
13819DA,DA,Denmark,13819,"Arab, Moroccan","Arab, Moroccan","Moroccan Arab",6000,EUR,Europe,10,"Europe, Western",N,10,"Arab World",115,"Arab, Maghreb",30298500,1,Y,N,1,300412,"Arab, Moroccan",106804,ary,"Arabic, Moroccan",4,6,Islam,0.600,0.300,N,,,,,Y,Y,12.573874,55.715494
13819EG,EG,Egypt,13819,"Arab, Moroccan","Arab, Moroccan","Moroccan Arab",1981000,AFR,Africa,6,"Africa, North and Middle East",Y,10,"Arab World",115,"Arab, Maghreb",30298500,1,Y,Y,40,300412,"Arab, Moroccan",106804,ary,"Arabic, Moroccan",4,6,Islam,0.040,0.012,N,,,,,Y,Y,31.270056,30.069883
13819FI,FI,Finland,13819,"Arab, Moroccan","Arab, Moroccan","Moroccan Arab",1000,EUR,Europe,10,"Europe, Western",N,10,"Arab World",115,"Arab, Maghreb",30298500,1,Y,N,1,300412,"Arab, Moroccan",106804,ary,"Arabic, Moroccan",4,6,Islam,0.110,0.080,N,,,,,Y,Y,24.995136,60.294986
13819FR,FR,France,13819,"Arab, Moroccan","Arab, Moroccan","Moroccan Arab",440000,EUR,Europe,10,"Europe, Western",N,10,"Arab World",115,"Arab, Maghreb",30298500,1,Y,N,9,300412,"Arab, Moroccan",106804,ary,"Arabic, Moroccan",4,6,Islam,0.500,0.100,N,,,,,Y,Y,5.3856100011006,43.304850356659
13819GI,GI,Gibraltar,13819,"Arab, Moroccan","Arab, Moroccan","Moroccan Arab",1600,EUR,Europe,10,"Europe, Western",N,10,"Arab World",115,"Arab, Maghreb",30298500,1,Y,N,1,300412,"Arab, Moroccan",106804,ary,"Arabic, Moroccan",4,6,Islam,5.000,0.500,N,,,,,Y,Y,-5.3452770699808,36.120378445909
13819GM,GM,Germany,13819,"Arab, Moroccan","Arab, Moroccan","Moroccan Arab",237000,EUR,Europe,10,"Europe, Western",N,10,"Arab World",115,"Arab, Maghreb",30298500,1,Y,N,5,300412,"Arab, Moroccan",106804,ary,"Arabic, Moroccan",4,6,Islam,0.500,0.050,N,,,,,Y,Y,13.429028022325,52.463173703304
13819LY,LY,Libya,13819,"Arab, Moroccan","Arab, Moroccan","Moroccan Arab",299000,AFR,Africa,6,"Africa, North and Middle East",Y,10,"Arab World",115,"Arab, Maghreb",30298500,1,Y,Y,6,300412,"Arab, Moroccan",106804,ary,"Arabic, Moroccan",4,6,Islam,0.090,0.010,N,,,,,Y,Y,13.271899,32.84745
13819AG,AG,Algeria,13819,"Arab, Moroccan","Arab, Moroccan","Moroccan Arab",188000,AFR,Africa,6,"Africa, North and Middle East",Y,10,"Arab World",115,"Arab, Maghreb",30298500,1,Y,N,4,300412,"Arab, Moroccan",106804,ary,"Arabic, Moroccan",4,6,Islam,0.150,0.150,N,,,,,Y,Y,-0.62589500035398,35.672831999697
13819AN,AN,Andorra,13819,"Arab, Moroccan","Arab, Moroccan","Moroccan Arab",600,EUR,Europe,10,"Europe, Western",N,10,"Arab World",115,"Arab, Maghreb",30298500,1,Y,N,1,300412,"Arab, Moroccan",106804,ary,"Arabic, Moroccan",4,6,Islam,1.000,0.699,N,,,,,Y,Y,1.475602,42.534721
13819MO,MO,Morocco,13819,"Arab, Moroccan","Arab, Moroccan","Moroccan Arab",25000000,AFR,Africa,6,"Africa, North and Middle East",Y,10,"Arab World",115,"Arab, Maghreb",30298500,1,Y,Y,500,300412,"Arab, Moroccan",106804,ary,"Arabic, Moroccan",4,6,Islam,0.090,0.082,Y,,,,,Y,Y,-7.5916139361342,33.574176824001
13819NL,NL,Netherlands,13819,"Arab, Moroccan","Arab, Moroccan","Moroccan Arab",308000,EUR,Europe,10,"Europe, Western",N,10,"Arab World",115,"Arab, Maghreb",30298500,1,Y,N,6,300412,"Arab, Moroccan",106804,ary,"Arabic, Moroccan",4,6,Islam,0.300,0.050,N,,,,,Y,Y,4.896695054633,52.378681865576
13819NO,NO,Norway,13819,"Arab, Moroccan","Arab, Moroccan","Moroccan Arab",8100,EUR,Europe,10,"Europe, Western",N,10,"Arab World",115,"Arab, Maghreb",30298500,1,Y,N,1,300412,"Arab, Moroccan",106804,ary,"Arabic, Moroccan",4,6,Islam,4.000,0.500,N,,,,,Y,Y,10.544579,59.89825
13819PO,PO,Portugal,13819,"Arab, Moroccan","Arab, Moroccan","Moroccan Arab",5900,EUR,Europe,10,"Europe, Western",N,10,"Arab World",115,"Arab, Maghreb",30298500,1,Y,N,1,300412,"Arab, Moroccan",106804,ary,"Arabic, Moroccan",4,6,Islam,0.400,0.100,N,,,,,Y,Y,-7.9303907389415,37.023900141578
13819SP,SP,Spain,13819,"Arab, Moroccan","Arab, Moroccan","Moroccan Arab",793000,EUR,Europe,10,"Europe, Western",N,10,"Arab World",115,"Arab, Maghreb",30298500,1,Y,Y,16,300412,"Arab, Moroccan",106804,ary,"Arabic, Moroccan",4,6,Islam,0.100,0.050,N,,,,,Y,Y,-3.6128262541283,40.445166747647
13819SU,SU,Sudan,13819,"Arab, Moroccan","Arab, Moroccan","Moroccan Arab",292000,AFR,Africa,7,"Africa, East and Southern",Y,10,"Arab World",115,"Arab, Maghreb",30298500,1,Y,Y,6,300412,"Arab, Moroccan",106804,ary,"Arabic, Moroccan",4,6,Islam,0.000,0.000,N,,,,,Y,Y,32.593340000141,15.431924999939
13819SW,SW,Sweden,13819,"Arab, Moroccan","Arab, Moroccan","Moroccan Arab",5900,EUR,Europe,10,"Europe, Western",N,10,"Arab World",115,"Arab, Maghreb",30298500,1,Y,Y,1,300412,"Arab, Moroccan",106804,ary,"Arabic, Moroccan",4,6,Islam,0.090,0.000,N,,,,,Y,Y,18.078497,59.309571
13819TU,TU,"Türkiye (Turkey)",13819,"Arab, Moroccan","Arab, Moroccan","Moroccan Arab",21000,ASI,Asia,5,"Asia, Central",Y,10,"Arab World",115,"Arab, Maghreb",30298500,1,Y,Y,1,300412,"Arab, Moroccan",106804,ary,"Arabic, Moroccan",4,6,Islam,0.000,0.000,N,,,,,Y,Y,32.66,39.92
13819UK,UK,"United Kingdom",13819,"Arab, Moroccan","Arab, Moroccan","Moroccan Arab",34000,EUR,Europe,10,"Europe, Western",N,10,"Arab World",115,"Arab, Maghreb",30298500,1,Y,Y,1,300412,"Arab, Moroccan",106804,ary,"Arabic, Moroccan",4,6,Islam,0.100,0.000,N,,,,,Y,Y,-0.11856808524897,51.553999353088
13819US,US,"United States",13819,"Arab, Moroccan","Arab, Moroccan","Moroccan Arab",218000,NAR,"North America",12,"America, North and Caribbean",N,10,"Arab World",115,"Arab, Maghreb",30298500,1,Y,N,4,300412,"Arab, Moroccan",106804,ary,"Arabic, Moroccan",4,6,Islam,2.000,1.000,N,,,,,Y,Y,-73.954567,40.695832
13819WI,WI,"Western Sahara",13819,"Arab, Moroccan","Arab, Moroccan","Moroccan Arab",8400,AFR,Africa,6,"Africa, North and Middle East",Y,10,"Arab World",115,"Arab, Maghreb",30298500,1,Y,N,1,300412,"Arab, Moroccan",106804,ary,"Arabic, Moroccan",4,6,Islam,0.180,0.026,N,,,,,Y,Y,-13.193181,27.140027
20327GR,GR,Greece,20327,"Arab, North Iraqi","Arab, North Iraqi","North Iraqi Arab",6900,EUR,Europe,9,"Europe, Eastern and Eurasia",N,10,"Arab World",113,"Arab, Levant",11439900,1,Y,N,1,300404,"Arab, Iraqi",116046,ayp,"Arabic, North Mesopotamian",4,6,Islam,4.000,0.200,N,"CC0 1.0",https://creativecommons.org/publicdomain/zero/1.0/,,,Y,Y,23.742393,38.017036
20327IZ,IZ,Iraq,20327,"Arab, North Iraqi","Arab, North Iraqi","North Iraqi Arab",9920000,ASI,Asia,6,"Africa, North and Middle East",Y,10,"Arab World",113,"Arab, Levant",11439900,1,Y,N,198,300404,"Arab, Iraqi",116046,ayp,"Arabic, North Mesopotamian",4,6,Islam,0.700,0.200,Y,"CC0 1.0",https://creativecommons.org/publicdomain/zero/1.0/,,,Y,Y,44.404592,33.395587
20327JO,JO,Jordan,20327,"Arab, North Iraqi","Arab, North Iraqi","North Iraqi Arab",458000,ASI,Asia,6,"Africa, North and Middle East",Y,10,"Arab World",113,"Arab, Levant",11439900,1,Y,N,9,300404,"Arab, Iraqi",116046,ayp,"Arabic, North Mesopotamian",4,6,Islam,0.700,0.200,N,"CC0 1.0",https://creativecommons.org/publicdomain/zero/1.0/,,,Y,Y,35.937201,31.958914
20327SY,SY,Syria,20327,"Arab, North Iraqi","Arab, North Iraqi","North Iraqi Arab",465000,ASI,Asia,6,"Africa, North and Middle East",Y,10,"Arab World",113,"Arab, Levant",11439900,1,Y,N,9,300404,"Arab, Iraqi",116046,ayp,"Arabic, North Mesopotamian",4,6,Islam,0.700,0.200,N,"CC0 1.0",https://creativecommons.org/publicdomain/zero/1.0/,,,Y,Y,38.3288,35.83124
20327TU,TU,"Türkiye (Turkey)",20327,"Arab, North Iraqi","Arab, North Iraqi","North Iraqi Arab",590000,ASI,Asia,5,"Asia, Central",Y,10,"Arab World",113,"Arab, Levant",11439900,1,Y,N,12,300404,"Arab, Iraqi",116046,ayp,"Arabic, North Mesopotamian",4,6,Islam,0.500,0.100,N,"CC0 1.0",https://creativecommons.org/publicdomain/zero/1.0/,,,Y,Y,41.25413,37.34824
14715CA,CA,Canada,14715,"Arab, Northern Yemeni","Arab, Northern Yemeni","Northern Yemeni Arab",6800,NAR,"North America",12,"America, North and Caribbean",N,10,"Arab World",118,"Arab, Yemeni",15317800,1,Y,N,1,300426,"Arab, Yemeni",108627,ayn,"Arabic, Sanaani",0,6,Islam,0.400,0.000,N,"CC BY-SA 2.0",https://creativecommons.org/licenses/by-sa/2.0/,,,N,Y,-79.513381,43.6932
14715SA,SA,"Saudi Arabia",14715,"Arab, Northern Yemeni","Arab, Northern Yemeni","Northern Yemeni Arab",289000,ASI,Asia,6,"Africa, North and Middle East",Y,10,"Arab World",118,"Arab, Yemeni",15317800,1,Y,Y,6,300426,"Arab, Yemeni",108627,ayn,"Arabic, Sanaani",0,6,Islam,0.000,0.000,N,"CC BY-SA 2.0",https://creativecommons.org/licenses/by-sa/2.0/,,,N,Y,42.502291,18.216971
14715TU,TU,"Türkiye (Turkey)",14715,"Arab, Northern Yemeni","Arab, Northern Yemeni","Northern Yemeni Arab",18000,ASI,Asia,5,"Asia, Central",Y,10,"Arab World",118,"Arab, Yemeni",15317800,1,Y,Y,1,300426,"Arab, Yemeni",108627,ayn,"Arabic, Sanaani",0,6,Islam,0.000,0.000,N,"CC BY-SA 2.0",https://creativecommons.org/licenses/by-sa/2.0/,,,N,Y,32.78,39.91
14715YM,YM,Yemen,14715,"Arab, Northern Yemeni","Arab, Northern Yemeni","Northern Yemeni Arab",15004000,ASI,Asia,6,"Africa, North and Middle East",Y,10,"Arab World",118,"Arab, Yemeni",15317800,1,Y,Y,300,300426,"Arab, Yemeni",108627,ayn,"Arabic, Sanaani",0,6,Islam,0.000,0.000,Y,"CC BY-SA 2.0",https://creativecommons.org/licenses/by-sa/2.0/,,,N,Y,43.747220975168,16.947780888177
10378SA,SA,"Saudi Arabia",10378,"Arab, Omani","Arab, Omani","Omani Arab",145000,ASI,Asia,6,"Africa, North and Middle East",Y,10,"Arab World",111,"Arab, Arabian",2823200,1,Y,N,3,300414,"Arab, Omani",100431,acx,"Arabic, Omani",0,6,Islam,0.300,0.100,N,"CC BY-NC-SA 2.0",https://creativecommons.org/licenses/by-nc-sa/2.0/,,,N,Y,47.292662892778,24.136073455326
10378SO,SO,Somalia,10378,"Arab, Omani","Arab, Omani","Omani Arab",102000,AFR,Africa,7,"Africa, East and Southern",Y,10,"Arab World",111,"Arab, Arabian",2823200,1,Y,N,2,300414,"Arab, Omani",100431,acx,"Arabic, Omani",0,6,Islam,0.500,0.200,N,"CC BY-NC-SA 2.0",https://creativecommons.org/licenses/by-nc-sa/2.0/,,,N,Y,45.355972,2.054846
10378UK,UK,"United Kingdom",10378,"Arab, Omani","Arab, Omani","Omani Arab",2200,EUR,Europe,10,"Europe, Western",N,10,"Arab World",111,"Arab, Arabian",2823200,1,Y,N,1,300414,"Arab, Omani",100431,acx,"Arabic, Omani",0,6,Islam,3.000,1.500,N,"CC BY-NC-SA 2.0",https://creativecommons.org/licenses/by-nc-sa/2.0/,,,N,Y,-0.105828,51.548879
10378US,US,"United States",10378,"Arab, Omani","Arab, Omani","Omani Arab",1000,NAR,"North America",12,"America, North and Caribbean",N,10,"Arab World",111,"Arab, Arabian",2823200,1,Y,N,1,300414,"Arab, Omani",100431,acx,"Arabic, Omani",0,6,Islam,3.000,1.500,N,"CC BY-NC-SA 2.0",https://creativecommons.org/licenses/by-nc-sa/2.0/,,,N,Y,-73.987781,40.669994
10378YM,YM,Yemen,10378,"Arab, Omani","Arab, Omani","Omani Arab",174000,ASI,Asia,6,"Africa, North and Middle East",Y,10,"Arab World",111,"Arab, Arabian",2823200,1,Y,Y,3,300414,"Arab, Omani",100431,acx,"Arabic, Omani",0,6,Islam,0.100,0.080,N,"CC BY-NC-SA 2.0",https://creativecommons.org/licenses/by-nc-sa/2.0/,,,N,Y,44.22407,15.325456
10378AE,AE,"United Arab Emirates",10378,"Arab, Omani","Arab, Omani","Omani Arab",292000,ASI,Asia,6,"Africa, North and Middle East",Y,10,"Arab World",111,"Arab, Arabian",2823200,1,Y,Y,6,300414,"Arab, Omani",100431,acx,"Arabic, Omani",0,6,Islam,0.000,0.000,N,"CC BY-NC-SA 2.0",https://creativecommons.org/licenses/by-nc-sa/2.0/,,,N,Y,55.92089225917,24.095158316803
10378DJ,DJ,Djibouti,10378,"Arab, Omani","Arab, Omani","Omani Arab",91000,AFR,Africa,7,"Africa, East and Southern",Y,10,"Arab World",111,"Arab, Arabian",2823200,1,Y,N,2,300414,"Arab, Omani",100431,acx,"Arabic, Omani",0,6,Islam,3.000,0.600,N,"CC BY-NC-SA 2.0",https://creativecommons.org/licenses/by-nc-sa/2.0/,,,N,Y,43.146694785736,11.578284027686
10378KE,KE,Kenya,10378,"Arab, Omani","Arab, Omani","Omani Arab",28000,AFR,Africa,7,"Africa, East and Southern",N,10,"Arab World",111,"Arab, Arabian",2823200,1,Y,N,1,300414,"Arab, Omani",100431,acx,"Arabic, Omani",0,6,Islam,0.300,0.100,Y,"CC BY-NC-SA 2.0",https://creativecommons.org/licenses/by-nc-sa/2.0/,,,N,Y,39.67311,-4.0111
10378KU,KU,Kuwait,10378,"Arab, Omani","Arab, Omani","Omani Arab",21000,ASI,Asia,6,"Africa, North and Middle East",Y,10,"Arab World",111,"Arab, Arabian",2823200,1,Y,Y,1,300414,"Arab, Omani",100431,acx,"Arabic, Omani",0,6,Islam,0.100,0.090,N,"CC BY-NC-SA 2.0",https://creativecommons.org/licenses/by-nc-sa/2.0/,,,N,Y,48.05953489412,29.295257787617
